[
  {
    "name": "Ortler/Ortles",
    "alternativen": [
      "Ortler",
      "Ortles"
    ],
    "lat": 46.5090956,
    "lon": 10.5449304,
    "einwohner": 3905,
    "waehlbar": true
  },
  {
    "name": "Königspitze/Gran Zebrù",
    "alternativen": [
      "Gran Zebrù",
      "Königspitze",
      "Königsspitze"
    ],
    "lat": 46.4786973,
    "lon": 10.5684876,
    "einwohner": 3851,
    "waehlbar": true
  },
  {
    "name": "Ortler Vorgipfel/Ortles Anticima",
    "alternativen": [
      "Ortles Anticima",
      "Ortler Vorgipfel"
    ],
    "lat": 46.5045082,
    "lon": 10.5424276,
    "einwohner": 3845,
    "waehlbar": false
  },
  {
    "name": "Südliche Zufallspitze/Cevedale II",
    "alternativen": [
      "Südliche Zufallspitze",
      "Hintere Zufallspitze",
      "Cevedale II",
      "Cima Cevedale"
    ],
    "lat": 46.4481306,
    "lon": 10.6223034,
    "einwohner": 3757,
    "waehlbar": true
  },
  {
    "name": "Weißkugel/Palla Bianca",
    "alternativen": [
      "Palla Bianca",
      "Weißkugel"
    ],
    "lat": 46.7978283,
    "lon": 10.7260747,
    "einwohner": 3738,
    "waehlbar": true
  },
  {
    "name": "Monte Zebrù",
    "alternativen": [
      "Monte Zebrù",
      "Monte Zebrù / Cima principale",
      "Monte Zebrù / Hauptgipfel"
    ],
    "lat": 46.4923011,
    "lon": 10.5501831,
    "einwohner": 3735,
    "waehlbar": true
  },
  {
    "name": "Monte Zebrù - Südostgipfel/Monte Zebrù - Cima di Sud Est",
    "alternativen": [
      "Monte Zebrù - Südostgipfel",
      "Monte Zebrù - Cima di Sud Est",
      "Monte Zebrù",
      "Südostgipfel",
      "Monte Zebrù Südostgipfel",
      "Cima di Sud Est"
    ],
    "lat": 46.4900786,
    "lon": 10.5540004,
    "einwohner": 3724,
    "waehlbar": false
  },
  {
    "name": "Nördliche Zufallspitze",
    "alternativen": [
      "Vordere Zufallspitze",
      "Nördliche Zufallspitze"
    ],
    "lat": 46.4499981,
    "lon": 10.622573,
    "einwohner": 3700,
    "waehlbar": false
  },
  {
    "name": "Thurwieserspitze/Punta Thurwieser",
    "alternativen": [
      "Punta Thurwieser",
      "Thurwieserspitze"
    ],
    "lat": 46.4953917,
    "lon": 10.5250761,
    "einwohner": 3658,
    "waehlbar": true
  },
  {
    "name": "Hintere Schwärze/Cima Nera",
    "alternativen": [
      "Hintere Schwärze",
      "Cima Nera"
    ],
    "lat": 46.7734046,
    "lon": 10.9146852,
    "einwohner": 3624,
    "waehlbar": true
  },
  {
    "name": "Similaun",
    "alternativen": [
      "Similaun"
    ],
    "lat": 46.763682,
    "lon": 10.8806482,
    "einwohner": 3606,
    "waehlbar": true
  },
  {
    "name": "Innerer Bärenbartkogel/Cima Barba d'Orso di Dentro",
    "alternativen": [
      "Innerer Bärenbartkogel",
      "Cima Barba d'Orso di Dentro"
    ],
    "lat": 46.7998489,
    "lon": 10.7198864,
    "einwohner": 3557,
    "waehlbar": true
  },
  {
    "name": "Großeiskogel",
    "alternativen": [
      "Großeiskogel"
    ],
    "lat": 46.4977854,
    "lon": 10.5296649,
    "einwohner": 3547,
    "waehlbar": false
  },
  {
    "name": "Vertainspitze/Cima Vertana",
    "alternativen": [
      "Vertainspitze",
      "Cima Vertana"
    ],
    "lat": 46.537427,
    "lon": 10.6359581,
    "einwohner": 3545,
    "waehlbar": true
  },
  {
    "name": "Mittlere Marzellspitze/Marzell di mezzo",
    "alternativen": [
      "Mittlere Marzellspitze",
      "Marzell di mezzo",
      "Punta di Marzèl mezzo"
    ],
    "lat": 46.7679641,
    "lon": 10.9048401,
    "einwohner": 3529,
    "waehlbar": true
  },
  {
    "name": "Westliche Marzellspitze/Punta di Marzèl Ovest",
    "alternativen": [
      "Westliche Marzellspitze",
      "Punta di Marzèl Ovest"
    ],
    "lat": 46.7699606,
    "lon": 10.8962035,
    "einwohner": 3527,
    "waehlbar": true
  },
  {
    "name": "Hohe Angelusspitze/L'Angelo Grande",
    "alternativen": [
      "Hohe Angelusspitze",
      "L'Angelo Grande"
    ],
    "lat": 46.5449175,
    "lon": 10.6483827,
    "einwohner": 3521,
    "waehlbar": true
  },
  {
    "name": "Innere Quellspitze/Cima della Sorgente di Dentro",
    "alternativen": [
      "Innere Quellspitze",
      "Cima della Sorgente di Dentro"
    ],
    "lat": 46.7882404,
    "lon": 10.7307191,
    "einwohner": 3514,
    "waehlbar": true
  },
  {
    "name": "Hochfeiler/Gran Pilastro",
    "alternativen": [
      "Gran Pilastro",
      "Hochfeiler"
    ],
    "lat": 46.9724019,
    "lon": 11.7275895,
    "einwohner": 3509,
    "waehlbar": true
  },
  {
    "name": "Dreiherrnspitze/Picco dei Tre Signori",
    "alternativen": [
      "Picco dei Tre Signori",
      "Dreiherrenspitze",
      "Dreiherrnspitze"
    ],
    "lat": 47.0691713,
    "lon": 12.240752,
    "einwohner": 3499,
    "waehlbar": true
  },
  {
    "name": "Weißseespitze/Cima del Lago Bianco",
    "alternativen": [
      "Weißseespitze",
      "Cima del Lago Bianco"
    ],
    "lat": 46.8462323,
    "lon": 10.7168691,
    "einwohner": 3498,
    "waehlbar": true
  },
  {
    "name": "Rötspitz/Pizzo Rosso",
    "alternativen": [
      "Rötspitz",
      "Rötspitze",
      "Pizzo Rosso"
    ],
    "lat": 47.0269795,
    "lon": 12.2048765,
    "einwohner": 3495,
    "waehlbar": true
  },
  {
    "name": "Hintere Hintereisspitze",
    "alternativen": [
      "Hintere Hintereisspitze"
    ],
    "lat": 46.822634,
    "lon": 10.7638613,
    "einwohner": 3486,
    "waehlbar": true
  },
  {
    "name": "Hochwilde/Cima Altissima",
    "alternativen": [
      "Hochwilde",
      "Hohe Wilde",
      "Cima Altissima"
    ],
    "lat": 46.7654204,
    "lon": 11.0222536,
    "einwohner": 3482,
    "waehlbar": true
  },
  {
    "name": "Äußerer Bärenbartkogel/Cima Barba d'Orso di Fuori",
    "alternativen": [
      "Äußerer Bärenbartkogel",
      "Cima Barba d'Orso di Fuori"
    ],
    "lat": 46.7965822,
    "lon": 10.6996478,
    "einwohner": 3473,
    "waehlbar": true
  },
  {
    "name": "Hochferner/Gran Vedretta",
    "alternativen": [
      "Hochfernerspitze",
      "Hochferner",
      "Gran Vedretta"
    ],
    "lat": 46.9779753,
    "lon": 11.7179995,
    "einwohner": 3470,
    "waehlbar": true
  },
  {
    "name": "Geisterspitze/Punta degli Spiriti",
    "alternativen": [
      "Punta degli Spiriti",
      "Geisterspitze"
    ],
    "lat": 46.4991955,
    "lon": 10.4748936,
    "einwohner": 3467,
    "waehlbar": true
  },
  {
    "name": "Karlesspitze/Cima di Quaira",
    "alternativen": [
      "Karlesspitze",
      "Cima di Quaira",
      "Grubspitze"
    ],
    "lat": 46.7721198,
    "lon": 10.9749815,
    "einwohner": 3463,
    "waehlbar": true
  },
  {
    "name": "Tuckettspitze/Cima Tuckett",
    "alternativen": [
      "Cima Tuckett",
      "Tuckettspitze"
    ],
    "lat": 46.4977443,
    "lon": 10.4894268,
    "einwohner": 3462,
    "waehlbar": true
  },
  {
    "name": "Schildspitze/Punta dello Scudo",
    "alternativen": [
      "Schildspitze",
      "Punta dello Scudo",
      "Schildspitze / Punta dello Scudo"
    ],
    "lat": 46.5274901,
    "lon": 10.6491766,
    "einwohner": 3461,
    "waehlbar": true
  },
  {
    "name": "Hochwilde (Nordgipfel)",
    "alternativen": [
      "Hochwilde (Nordgipfel)",
      "Hohe Wilde (Nordgipfel)"
    ],
    "lat": 46.7679577,
    "lon": 11.0190085,
    "einwohner": 3461,
    "waehlbar": false
  },
  {
    "name": "Schwemser Spitze/Punta di Oberettes",
    "alternativen": [
      "Oberettesspitze",
      "Schwemser Spitze",
      "Punta di Oberettes"
    ],
    "lat": 46.7743033,
    "lon": 10.7332001,
    "einwohner": 3456,
    "waehlbar": true
  },
  {
    "name": "Hinterer Eggenspitz/Cima Sternai",
    "alternativen": [
      "Cima Sternai",
      "Hinterer Eggenspitz"
    ],
    "lat": 46.4777039,
    "lon": 10.7706092,
    "einwohner": 3443,
    "waehlbar": true
  },
  {
    "name": "Lagaunspitze/Punta di Lagaun",
    "alternativen": [
      "Punta di Lagaun",
      "Lagaunspitze"
    ],
    "lat": 46.7391537,
    "lon": 10.7393738,
    "einwohner": 3440,
    "waehlbar": true
  },
  {
    "name": "Zufrittspitze/Gioveretto",
    "alternativen": [
      "Gioveretto",
      "Zufrittspitze"
    ],
    "lat": 46.5018817,
    "lon": 10.7822601,
    "einwohner": 3439,
    "waehlbar": true
  },
  {
    "name": "Hochgall/Monte Collalto",
    "alternativen": [
      "Monte Collalto",
      "Hochgall"
    ],
    "lat": 46.9108486,
    "lon": 12.1402461,
    "einwohner": 3436,
    "waehlbar": true
  },
  {
    "name": "Saldurspitze/Punta Saldura",
    "alternativen": [
      "Saldurspitze",
      "Punta Saldura"
    ],
    "lat": 46.7407134,
    "lon": 10.7361131,
    "einwohner": 3433,
    "waehlbar": true
  },
  {
    "name": "Hochvernaglwand/Croda Vernaga Alta",
    "alternativen": [
      "Croda Vernaga Alta",
      "Hochvernaglwand"
    ],
    "lat": 46.8177559,
    "lon": 10.7587925,
    "einwohner": 3433,
    "waehlbar": true
  },
  {
    "name": "Hochofenwand/Croda del Forno",
    "alternativen": [
      "Croda del Forno",
      "Hochofenwand"
    ],
    "lat": 46.5530747,
    "lon": 10.6504364,
    "einwohner": 3431,
    "waehlbar": true
  },
  {
    "name": "Hintere Madatschspitze/Madaccio Di dentro",
    "alternativen": [
      "Hintere Madatschspitze",
      "Madaccio Di dentro"
    ],
    "lat": 46.4996597,
    "lon": 10.4942093,
    "einwohner": 3428,
    "waehlbar": true
  },
  {
    "name": "Hohe Wart/Guardia Alta",
    "alternativen": [
      "Guardia Alta",
      "Hohe Wart"
    ],
    "lat": 46.7587081,
    "lon": 10.8768506,
    "einwohner": 3424,
    "waehlbar": false
  },
  {
    "name": "Plattenspitze/Punta delle Laste",
    "alternativen": [
      "Plattenspitze",
      "Plattenspitze / Punta delle Laste",
      "Punta delle Laste"
    ],
    "lat": 46.5214043,
    "lon": 10.6411545,
    "einwohner": 3422,
    "waehlbar": true
  },
  {
    "name": "Wilder Freiger/Cima Libera",
    "alternativen": [
      "Wilder Freiger",
      "Cima Libera"
    ],
    "lat": 46.9705175,
    "lon": 11.1899934,
    "einwohner": 3418,
    "waehlbar": true
  },
  {
    "name": "Westlicher Fineilkopf/Punta dei Corvi occidentale",
    "alternativen": [
      "Westlicher Fineilkopf",
      "Punta dei Corvi occidentale"
    ],
    "lat": 46.7748642,
    "lon": 10.8193574,
    "einwohner": 3418,
    "waehlbar": false
  },
  {
    "name": "Hintere Faulwand/Croda Marcia",
    "alternativen": [
      "Hintere Faulwand",
      "Croda Marcia"
    ],
    "lat": 46.757194,
    "lon": 10.8957825,
    "einwohner": 3416,
    "waehlbar": true
  },
  {
    "name": "Turnerkamp/Cima di Campo",
    "alternativen": [
      "Turnerkamp",
      "Cima di Campo"
    ],
    "lat": 46.9901893,
    "lon": 11.80975,
    "einwohner": 3416,
    "waehlbar": true
  },
  {
    "name": "Große Schneeglocke/Cima Campana Grande",
    "alternativen": [
      "Große Schneeglocke",
      "Cima Campana Grande"
    ],
    "lat": 46.4965894,
    "lon": 10.5090384,
    "einwohner": 3410,
    "waehlbar": true
  },
  {
    "name": "Äußere Pederspitze/Punta Peder di Fuori",
    "alternativen": [
      "Punta Peder di Fuori",
      "Äußere Pederspitze"
    ],
    "lat": 46.5292547,
    "lon": 10.6708682,
    "einwohner": 3406,
    "waehlbar": true
  },
  {
    "name": "Kleiner Möseler/Piccolo Mèsule",
    "alternativen": [
      "Piccolo Mèsule",
      "Kleiner Möseler"
    ],
    "lat": 46.9914829,
    "lon": 11.7866666,
    "einwohner": 3405,
    "waehlbar": true
  },
  {
    "name": "Kleine Schneeglocke/Cima Campana Piccola",
    "alternativen": [
      "Kleine Schneeglocke",
      "Cima Campana Piccola"
    ],
    "lat": 46.4963805,
    "lon": 10.5042295,
    "einwohner": 3404,
    "waehlbar": true
  },
  {
    "name": "Liebener Spitze/Cima della Chiesa",
    "alternativen": [
      "Cima della Chiesa",
      "Liebener Spitze"
    ],
    "lat": 46.8203848,
    "lon": 11.0757044,
    "einwohner": 3400,
    "waehlbar": true
  },
  {
    "name": "Griesferner",
    "alternativen": [
      "Grießferner",
      "Griesferner"
    ],
    "lat": 46.9778177,
    "lon": 11.7217459,
    "einwohner": 3398,
    "waehlbar": false
  },
  {
    "name": "Hinterer Weißspitz",
    "alternativen": [
      "Hinterer Weißspitz"
    ],
    "lat": 46.9762317,
    "lon": 11.7104905,
    "einwohner": 3396,
    "waehlbar": false
  },
  {
    "name": "Rabenkopf/Cima dei Corvi",
    "alternativen": [
      "Rabenkopf",
      "Cima dei Corvi"
    ],
    "lat": 46.7835159,
    "lon": 10.6728103,
    "einwohner": 3394,
    "waehlbar": true
  },
  {
    "name": "Rötenspitze",
    "alternativen": [
      "Rötenspitze"
    ],
    "lat": 46.7752477,
    "lon": 10.9438015,
    "einwohner": 3393,
    "waehlbar": true
  },
  {
    "name": "Signalgipfel",
    "alternativen": [
      "Signalgipfel"
    ],
    "lat": 46.9681212,
    "lon": 11.1929738,
    "einwohner": 3392,
    "waehlbar": false
  },
  {
    "name": "Kreilspitze/Punta Graglia",
    "alternativen": [
      "Kreilspitze",
      "Punta Graglia"
    ],
    "lat": 46.4725405,
    "lon": 10.5804178,
    "einwohner": 3391,
    "waehlbar": true
  },
  {
    "name": "Möselekopf",
    "alternativen": [
      "Möselekopf"
    ],
    "lat": 46.9887407,
    "lon": 11.7805315,
    "einwohner": 3389,
    "waehlbar": true
  },
  {
    "name": "Schrötterhorn/Corno di Solda",
    "alternativen": [
      "Schrötterhorn",
      "Corno di Solda"
    ],
    "lat": 46.4706884,
    "lon": 10.5917663,
    "einwohner": 3388,
    "waehlbar": false
  },
  {
    "name": "Veneziaspitze/Cima Venezia",
    "alternativen": [
      "Cima Venezia",
      "Veneziaspitze"
    ],
    "lat": 46.4537855,
    "lon": 10.6893659,
    "einwohner": 3386,
    "waehlbar": true
  },
  {
    "name": "Äußere Quellspitze/Cima della Sorgente di Fuori",
    "alternativen": [
      "Cima della Sorgente di Fuori",
      "Äußere Quellspitze"
    ],
    "lat": 46.7784582,
    "lon": 10.7294888,
    "einwohner": 3385,
    "waehlbar": false
  },
  {
    "name": "Zinne",
    "alternativen": [
      "Zinne"
    ],
    "lat": 46.82673,
    "lon": 10.758507,
    "einwohner": 3381,
    "waehlbar": false
  },
  {
    "name": "Großer Löffler/Monte Lovello",
    "alternativen": [
      "Monte Lovello",
      "Großer Löffler"
    ],
    "lat": 47.0325265,
    "lon": 11.9156504,
    "einwohner": 3378,
    "waehlbar": true
  },
  {
    "name": "Suldenspitze/Cima di Solda",
    "alternativen": [
      "Suldenspitze",
      "Cima di Solda"
    ],
    "lat": 46.4687409,
    "lon": 10.6003433,
    "einwohner": 3376,
    "waehlbar": true
  },
  {
    "name": "Tschenglser Hochwand/Croda di Cengels",
    "alternativen": [
      "Croda di Cengels",
      "Tschenglser Hochwand"
    ],
    "lat": 46.5642975,
    "lon": 10.629135,
    "einwohner": 3375,
    "waehlbar": true
  },
  {
    "name": "Zweite Veneziaspitze/Cima Venezia II",
    "alternativen": [
      "Zweite Veneziaspitze",
      "Cima Venezia II"
    ],
    "lat": 46.4557811,
    "lon": 10.6905716,
    "einwohner": 3371,
    "waehlbar": false
  },
  {
    "name": "Hoher Weißzint/Punta Bianca",
    "alternativen": [
      "Hoher Weißzint",
      "Punta Bianca"
    ],
    "lat": 46.9675988,
    "lon": 11.7473841,
    "einwohner": 3371,
    "waehlbar": true
  },
  {
    "name": "Lyfihorn/Corno Livi",
    "alternativen": [
      "Corno Livi",
      "Lyfihorn"
    ],
    "lat": 46.5321518,
    "lon": 10.6730473,
    "einwohner": 3370,
    "waehlbar": true
  },
  {
    "name": "Schwarzenstein/Sasso Nero",
    "alternativen": [
      "Sasso Nero",
      "Schwarzenstein"
    ],
    "lat": 47.0100814,
    "lon": 11.8740569,
    "einwohner": 3369,
    "waehlbar": true
  },
  {
    "name": "Freibrunner Spitze/Cima Fontana",
    "alternativen": [
      "Cima Fontana",
      "Freibrunner Spitze"
    ],
    "lat": 46.7925504,
    "lon": 10.6894849,
    "einwohner": 3366,
    "waehlbar": true
  },
  {
    "name": "Ramudlaspitz/Punta Silandro",
    "alternativen": [
      "Punta Silandro",
      "Ramudlaspitz"
    ],
    "lat": 46.7281653,
    "lon": 10.7319865,
    "einwohner": 3364,
    "waehlbar": false
  },
  {
    "name": "Kleiner Similaun/Piccolo Similaun",
    "alternativen": [
      "Piccolo Similaun",
      "Kleiner Similaun"
    ],
    "lat": 46.7658053,
    "lon": 10.8684277,
    "einwohner": 3363,
    "waehlbar": true
  },
  {
    "name": "Falschungsspitze",
    "alternativen": [
      "Falschungsspitze",
      "Falschunggspitze"
    ],
    "lat": 46.7679963,
    "lon": 10.9879698,
    "einwohner": 3363,
    "waehlbar": true
  },
  {
    "name": "Fanatspitze",
    "alternativen": [
      "Fanatspitze"
    ],
    "lat": 46.7714868,
    "lon": 10.9629606,
    "einwohner": 3361,
    "waehlbar": true
  },
  {
    "name": "Südliche Valvelspitze",
    "alternativen": [
      "Valvelspitze",
      "Südliche Valvelspitze"
    ],
    "lat": 46.7687255,
    "lon": 10.6706547,
    "einwohner": 3360,
    "waehlbar": true
  },
  {
    "name": "Schneebiger Nock/Monte Nevoso",
    "alternativen": [
      "Monte Nevoso",
      "Schneebiger Nock"
    ],
    "lat": 46.9055216,
    "lon": 12.084082,
    "einwohner": 3358,
    "waehlbar": true
  },
  {
    "name": "Hinterer Schranspitz/Punta Martello",
    "alternativen": [
      "Hinterer Schranspitz",
      "Punta Martello"
    ],
    "lat": 46.4618164,
    "lon": 10.7078361,
    "einwohner": 3357,
    "waehlbar": false
  },
  {
    "name": "Vernagl",
    "alternativen": [
      "Vernagl"
    ],
    "lat": 46.815015,
    "lon": 10.751025,
    "einwohner": 3352,
    "waehlbar": true
  },
  {
    "name": "Lyfispitze/Punta Livi",
    "alternativen": [
      "Punta Livi",
      "Lyfispitze",
      "Lyfispitz"
    ],
    "lat": 46.5341461,
    "lon": 10.6875919,
    "einwohner": 3352,
    "waehlbar": true
  },
  {
    "name": "Lorchenspitz/Cima Lorchen",
    "alternativen": [
      "Lorchenspitz",
      "Cima Lorchen"
    ],
    "lat": 46.485984,
    "lon": 10.7650556,
    "einwohner": 3347,
    "waehlbar": true
  },
  {
    "name": "Hintere Rotspitze/Cima Rossa di Saent",
    "alternativen": [
      "Hintere Rotspitze",
      "Cima Rossa di Saent"
    ],
    "lat": 46.4612136,
    "lon": 10.7165925,
    "einwohner": 3347,
    "waehlbar": true
  },
  {
    "name": "Köllkuppe/Cima Marmotta",
    "alternativen": [
      "Köllkuppe",
      "Cima Marmotta"
    ],
    "lat": 46.4497562,
    "lon": 10.6828809,
    "einwohner": 3346,
    "waehlbar": true
  },
  {
    "name": "Rotegg",
    "alternativen": [
      "Rotegge",
      "Rotegg"
    ],
    "lat": 46.7941681,
    "lon": 11.0374767,
    "einwohner": 3341,
    "waehlbar": true
  },
  {
    "name": "Roteck/Monte Rosso",
    "alternativen": [
      "Monterosso",
      "Rotegg",
      "Roteck",
      "Monte Rosso",
      "Zehnerspitze"
    ],
    "lat": 46.7235816,
    "lon": 10.9842619,
    "einwohner": 3337,
    "waehlbar": true
  },
  {
    "name": "Ramudlakopf/Cima Ramudla",
    "alternativen": [
      "Ramudlakopf",
      "Cima Ramudla"
    ],
    "lat": 46.7241109,
    "lon": 10.7236093,
    "einwohner": 3336,
    "waehlbar": true
  },
  {
    "name": "Nördliche Valvelspitze",
    "alternativen": [
      "Nördliche Valvelspitze"
    ],
    "lat": 46.775027,
    "lon": 10.6707667,
    "einwohner": 3329,
    "waehlbar": true
  },
  {
    "name": "Hintere Schöntaufspitze/Punta Beltovo di Dentro",
    "alternativen": [
      "Hintere Schöntaufspitze",
      "Punta Beltovo di Dentro"
    ],
    "lat": 46.5028467,
    "lon": 10.6285696,
    "einwohner": 3325,
    "waehlbar": true
  },
  {
    "name": "Gamsspitz/Cima dei Camosci",
    "alternativen": [
      "Cima dei Camosci",
      "Gamsspitz"
    ],
    "lat": 46.535462,
    "lon": 10.6679302,
    "einwohner": 3320,
    "waehlbar": false
  },
  {
    "name": "Kleine Angelus Spitze/L'Angelo Piccolo",
    "alternativen": [
      "L'Angelo Piccolo",
      "Kleine Angelus Spitze"
    ],
    "lat": 46.5580278,
    "lon": 10.6482874,
    "einwohner": 3318,
    "waehlbar": true
  },
  {
    "name": "Texelspitze/Cima Tessa",
    "alternativen": [
      "Cima Tessa",
      "Texelspitze"
    ],
    "lat": 46.7193997,
    "lon": 10.9718281,
    "einwohner": 3318,
    "waehlbar": true
  },
  {
    "name": "Hinterer Pederspitz/Punta Peder di Dentro",
    "alternativen": [
      "Innere Pederspitze",
      "Hinterer Pederspitz",
      "Punta Peder di Dentro"
    ],
    "lat": 46.5097562,
    "lon": 10.6383246,
    "einwohner": 3313,
    "waehlbar": false
  },
  {
    "name": "Mittlere Madatschsptze/Madaccio di Mezzo",
    "alternativen": [
      "Mittlere Madatschsptze",
      "Madaccio di Mezzo"
    ],
    "lat": 46.5075329,
    "lon": 10.4915407,
    "einwohner": 3313,
    "waehlbar": false
  },
  {
    "name": "Lazaunspitze/Cima di Lazaun",
    "alternativen": [
      "Cima di Lazaun",
      "Lazaunspitze"
    ],
    "lat": 46.7445811,
    "lon": 10.7340798,
    "einwohner": 3313,
    "waehlbar": false
  },
  {
    "name": "Schafbergspitze/Cima delle Pecore",
    "alternativen": [
      "Schafbergspitze",
      "Cima delle Pecore"
    ],
    "lat": 46.5634775,
    "lon": 10.6469718,
    "einwohner": 3306,
    "waehlbar": true
  },
  {
    "name": "Laaser Spitze/Punta di Lasa",
    "alternativen": [
      "Punta di Lasa",
      "Laaser Spitze"
    ],
    "lat": 46.5622611,
    "lon": 10.717988,
    "einwohner": 3305,
    "waehlbar": true
  },
  {
    "name": "Butzenspitze/Cima Pozzo",
    "alternativen": [
      "Butzenspitze",
      "Cima Pozzo"
    ],
    "lat": 46.4858142,
    "lon": 10.6220593,
    "einwohner": 3300,
    "waehlbar": true
  },
  {
    "name": "Möselernock",
    "alternativen": [
      "Möselernock"
    ],
    "lat": 46.9909324,
    "lon": 11.794748,
    "einwohner": 3297,
    "waehlbar": true
  },
  {
    "name": "Oberettesspitz/Punta d'Oberettes sud",
    "alternativen": [
      "Punta d'Oberettes sud",
      "Südliche Schwemserspitze",
      "Oberettesspitz"
    ],
    "lat": 46.7672301,
    "lon": 10.7282793,
    "einwohner": 3296,
    "waehlbar": false
  },
  {
    "name": "Untere Rötspitze",
    "alternativen": [
      "Untere Rötspitze"
    ],
    "lat": 47.0328489,
    "lon": 12.2095291,
    "einwohner": 3290,
    "waehlbar": true
  },
  {
    "name": "Hohe Wand/Croda Alta",
    "alternativen": [
      "Croda Alta",
      "Hohe Wand"
    ],
    "lat": 47.0132989,
    "lon": 11.6272107,
    "einwohner": 3289,
    "waehlbar": true
  },
  {
    "name": "Kasererwartl",
    "alternativen": [
      "Kasererwartl"
    ],
    "lat": 46.7559183,
    "lon": 10.8825967,
    "einwohner": 3287,
    "waehlbar": false
  },
  {
    "name": "Seeberspitz/Cima del Lago",
    "alternativen": [
      "Cima del Lago",
      "Seewerspitze",
      "Seeberspitz"
    ],
    "lat": 46.8225182,
    "lon": 11.0834481,
    "einwohner": 3282,
    "waehlbar": true
  },
  {
    "name": "Hohe Weiße/Cima Bianca Grande",
    "alternativen": [
      "Cima Bianca Grande",
      "Hohe Weiße",
      "Hochweiße"
    ],
    "lat": 46.7455839,
    "lon": 11.0373396,
    "einwohner": 3277,
    "waehlbar": true
  },
  {
    "name": "Eiskofel",
    "alternativen": [
      "Eiskofel"
    ],
    "lat": 46.4642896,
    "lon": 10.6171058,
    "einwohner": 3275,
    "waehlbar": false
  },
  {
    "name": "Wildgall/Monte Collaspro",
    "alternativen": [
      "Monte Collaspro",
      "Wildgall"
    ],
    "lat": 46.9030152,
    "lon": 12.135375,
    "einwohner": 3273,
    "waehlbar": true
  },
  {
    "name": "Magerstein",
    "alternativen": [
      "Magerstein"
    ],
    "lat": 46.8979448,
    "lon": 12.0964727,
    "einwohner": 3273,
    "waehlbar": true
  },
  {
    "name": "Im Hinteren Eis/Punta della Vedretta",
    "alternativen": [
      "Punta della Vedretta",
      "Im Hinteren Eis"
    ],
    "lat": 46.7934778,
    "lon": 10.7822244,
    "einwohner": 3269,
    "waehlbar": true
  },
  {
    "name": "Vorderer Weißspitz/Cima di Sopramonte",
    "alternativen": [
      "Vorderer Weißspitz",
      "Cima di Sopramonte"
    ],
    "lat": 46.9728392,
    "lon": 11.6997684,
    "einwohner": 3269,
    "waehlbar": true
  },
  {
    "name": "Madritschspitze/Cima Madriccio",
    "alternativen": [
      "Cima Madriccio",
      "Madritschspitze"
    ],
    "lat": 46.4915969,
    "lon": 10.6292183,
    "einwohner": 3265,
    "waehlbar": true
  },
  {
    "name": "Großer Raffein-Rabenspitz",
    "alternativen": [
      "ÖK50",
      "Rabenspitz",
      "Hahlplattenspitze",
      "Großer Raffein",
      "Großer Raffein-Rabenspitz"
    ],
    "lat": 46.7689579,
    "lon": 10.8287334,
    "einwohner": 3265,
    "waehlbar": false
  },
  {
    "name": "Niederer Weißzint/Punta Bianca Bassa",
    "alternativen": [
      "Niederer Weißzint",
      "Punta Bianca Bassa"
    ],
    "lat": 46.9575211,
    "lon": 11.7360119,
    "einwohner": 3263,
    "waehlbar": true
  },
  {
    "name": "Hochalt/Monte Alto",
    "alternativen": [
      "Monte Alto",
      "Hochalt"
    ],
    "lat": 46.6989639,
    "lon": 10.7259198,
    "einwohner": 3263,
    "waehlbar": true
  },
  {
    "name": "Trübwand",
    "alternativen": [
      "Trübwand"
    ],
    "lat": 46.7333821,
    "lon": 10.9944167,
    "einwohner": 3260,
    "waehlbar": true
  },
  {
    "name": "Schluderzahn/Dente di Sluder",
    "alternativen": [
      "Schluderzahn",
      "Dente di Sluder"
    ],
    "lat": 46.5449967,
    "lon": 10.6926451,
    "einwohner": 3258,
    "waehlbar": false
  },
  {
    "name": "Hasenöhrl/L'Orecchia di Lepre",
    "alternativen": [
      "Hasenöhrl",
      "L'Orecchia di Lepre"
    ],
    "lat": 46.5440663,
    "lon": 10.8588813,
    "einwohner": 3257,
    "waehlbar": true
  },
  {
    "name": "Weißbrunnspitze/Cima Fontana Bianca",
    "alternativen": [
      "Weißbrunnspitze",
      "Cima Fontana Bianca"
    ],
    "lat": 46.4939772,
    "lon": 10.7740206,
    "einwohner": 3253,
    "waehlbar": true
  },
  {
    "name": "Hinterer Nonnenspitz/Cima di Rabbi",
    "alternativen": [
      "Cima di Rabbi",
      "Hinterer Nonnenspitz"
    ],
    "lat": 46.4858633,
    "lon": 10.7519739,
    "einwohner": 3252,
    "waehlbar": true
  },
  {
    "name": "Naglerspitz/Naglerspitz",
    "alternativen": [
      "Naglerspitz"
    ],
    "lat": 46.5108969,
    "lon": 10.4578363,
    "einwohner": 3252,
    "waehlbar": false
  },
  {
    "name": "Rotwand",
    "alternativen": [
      "Rotwand"
    ],
    "lat": 46.7280211,
    "lon": 10.984986,
    "einwohner": 3252,
    "waehlbar": true
  },
  {
    "name": "Botzer/Il Capro",
    "alternativen": [
      "Il Capro",
      "Botzer"
    ],
    "lat": 46.9311224,
    "lon": 11.198011,
    "einwohner": 3251,
    "waehlbar": true
  },
  {
    "name": "Grawand/Croda delle Cornacchie",
    "alternativen": [
      "Grawand",
      "Croda delle Cornacchie"
    ],
    "lat": 46.7690657,
    "lon": 10.7996383,
    "einwohner": 3251,
    "waehlbar": true
  },
  {
    "name": "Frauenköpfl",
    "alternativen": [
      "Frauenköpfl"
    ],
    "lat": 46.8997735,
    "lon": 12.0927455,
    "einwohner": 3251,
    "waehlbar": true
  },
  {
    "name": "Fernerköpfl",
    "alternativen": [
      "Fernerköpfl"
    ],
    "lat": 46.9006062,
    "lon": 12.0889535,
    "einwohner": 3249,
    "waehlbar": true
  },
  {
    "name": "Roter Kopf/Cima Rossa",
    "alternativen": [
      "Roter Kopf",
      "Cima Rossa"
    ],
    "lat": 46.7976702,
    "lon": 10.6778772,
    "einwohner": 3246,
    "waehlbar": true
  },
  {
    "name": "Schwarzenbachspitz/Monte Rio Nero",
    "alternativen": [
      "Schwarzenbachspitz",
      "Monte Rio Nero"
    ],
    "lat": 47.0056066,
    "lon": 11.8761566,
    "einwohner": 3246,
    "waehlbar": true
  },
  {
    "name": "Heuflerkogel/Monte del Cumulo",
    "alternativen": [
      "Heuflerkogel",
      "Monte del Cumulo"
    ],
    "lat": 46.8149794,
    "lon": 11.0649098,
    "einwohner": 3238,
    "waehlbar": true
  },
  {
    "name": "Lenkstein",
    "alternativen": [
      "Lenkstein"
    ],
    "lat": 46.939512,
    "lon": 12.1666389,
    "einwohner": 3236,
    "waehlbar": true
  },
  {
    "name": "Vordere Karlesspitze/Cima di Càrles Meridionale",
    "alternativen": [
      "Cima di Càrles Meridionale",
      "Vordere Karlesspitze"
    ],
    "lat": 46.8527691,
    "lon": 10.6932512,
    "einwohner": 3233,
    "waehlbar": true
  },
  {
    "name": "Schluderspitze/Punta di Slúder",
    "alternativen": [
      "Punta di Slúder",
      "Schluderspitze"
    ],
    "lat": 46.5478383,
    "lon": 10.6997123,
    "einwohner": 3230,
    "waehlbar": true
  },
  {
    "name": "Eisseespitze/Punta del Lago Gelato",
    "alternativen": [
      "Eisseespitze",
      "Punta del Lago Gelato"
    ],
    "lat": 46.4800848,
    "lon": 10.60904,
    "einwohner": 3230,
    "waehlbar": true
  },
  {
    "name": "Lodner/Cima Fiammante",
    "alternativen": [
      "Lodner",
      "Cima Fiammante",
      "Lodnerspitze"
    ],
    "lat": 46.7337171,
    "lon": 11.0401865,
    "einwohner": 3228,
    "waehlbar": true
  },
  {
    "name": "Altplittschneid/Cresta Alta",
    "alternativen": [
      "Cresta Alta",
      "Altplittschneid"
    ],
    "lat": 46.5122169,
    "lon": 10.7720068,
    "einwohner": 3228,
    "waehlbar": false
  },
  {
    "name": "Hohenfernerspitz",
    "alternativen": [
      "Hohenfernerspitz"
    ],
    "lat": 46.4530322,
    "lon": 10.6658823,
    "einwohner": 3226,
    "waehlbar": false
  },
  {
    "name": "Egg",
    "alternativen": [
      "Egg"
    ],
    "lat": 46.7905689,
    "lon": 10.7760614,
    "einwohner": 3219,
    "waehlbar": true
  },
  {
    "name": "Salentspitz/Cima di Saent",
    "alternativen": [
      "Salentspitz",
      "Cima di Saent"
    ],
    "lat": 46.4815695,
    "lon": 10.7383729,
    "einwohner": 3215,
    "waehlbar": true
  },
  {
    "name": "Vordere Schöntaufspitze",
    "alternativen": [
      "Vordere Schöntaufspitze"
    ],
    "lat": 46.5046966,
    "lon": 10.6194011,
    "einwohner": 3214,
    "waehlbar": true
  },
  {
    "name": "Remsspitze",
    "alternativen": [
      "Remsspitze"
    ],
    "lat": 46.6941966,
    "lon": 10.6771774,
    "einwohner": 3212,
    "waehlbar": true
  },
  {
    "name": "Wollbachspitz/Punta di Valle",
    "alternativen": [
      "Wollbachspitz",
      "Punta di Valle"
    ],
    "lat": 47.0500485,
    "lon": 11.9795303,
    "einwohner": 3210,
    "waehlbar": true
  },
  {
    "name": "Kreuzspitz",
    "alternativen": [
      "Kreuzspitz"
    ],
    "lat": 46.715003,
    "lon": 10.9691841,
    "einwohner": 3207,
    "waehlbar": false
  },
  {
    "name": "Litzer Spitz/Punta d'Alliz",
    "alternativen": [
      "Litzer Spitz",
      "Litzner Spitze",
      "Punta d'Alliz"
    ],
    "lat": 46.6875303,
    "lon": 10.6869115,
    "einwohner": 3206,
    "waehlbar": true
  },
  {
    "name": "Piz Sesvenna",
    "alternativen": [
      "Piz Sesvenna"
    ],
    "lat": 46.7055039,
    "lon": 10.4033022,
    "einwohner": 3204,
    "waehlbar": true
  },
  {
    "name": "Mastaunspitz/Mastaun",
    "alternativen": [
      "Mastaun",
      "Mastaunspitz"
    ],
    "lat": 46.6931319,
    "lon": 10.80201,
    "einwohner": 3203,
    "waehlbar": true
  },
  {
    "name": "Graue Wand/Croda Grigia",
    "alternativen": [
      "Croda Grigia",
      "Graue Wand"
    ],
    "lat": 46.7729322,
    "lon": 10.7951456,
    "einwohner": 3202,
    "waehlbar": false
  },
  {
    "name": "Nock",
    "alternativen": [
      "Nock"
    ],
    "lat": 46.9287592,
    "lon": 11.2012814,
    "einwohner": 3202,
    "waehlbar": false
  },
  {
    "name": "Falbenairspitze/Punta di Val Benair",
    "alternativen": [
      "Punta di Val Benair",
      "Falbenairspitze"
    ],
    "lat": 46.8045368,
    "lon": 10.6613128,
    "einwohner": 3199,
    "waehlbar": true
  },
  {
    "name": "Hoher Rosshuf/Pie di Cavallo",
    "alternativen": [
      "Hoher Rosshuf",
      "Pie di Cavallo"
    ],
    "lat": 47.0586841,
    "lon": 12.2165593,
    "einwohner": 3199,
    "waehlbar": true
  },
  {
    "name": "II. Hornspitze/Corno di Ghega",
    "alternativen": [
      "Corno di Ghega",
      "II. Hornspitze"
    ],
    "lat": 47.0016924,
    "lon": 11.8450917,
    "einwohner": 3199,
    "waehlbar": true
  },
  {
    "name": "Becher/Bicchiere",
    "alternativen": [
      "Becher",
      "Bicchiere"
    ],
    "lat": 46.9610519,
    "lon": 11.1921716,
    "einwohner": 3195,
    "waehlbar": false
  },
  {
    "name": "Aglsspitze/Cima dell Accla",
    "alternativen": [
      "Aglsspitze",
      "Cima dell Accla"
    ],
    "lat": 46.9655114,
    "lon": 11.2438947,
    "einwohner": 3194,
    "waehlbar": true
  },
  {
    "name": "Hollenzkopf",
    "alternativen": [
      "Hollenzkopf"
    ],
    "lat": 47.0470749,
    "lon": 11.9856381,
    "einwohner": 3194,
    "waehlbar": true
  },
  {
    "name": "Vordere Madatschspitze/Madaccio di fuori",
    "alternativen": [
      "Vordere Madatschspitze",
      "Madaccio di fuori"
    ],
    "lat": 46.5136557,
    "lon": 10.4906199,
    "einwohner": 3191,
    "waehlbar": false
  },
  {
    "name": "Hochgewand/Parete Alta",
    "alternativen": [
      "Hochgewand",
      "Parete Alta"
    ],
    "lat": 46.9336236,
    "lon": 11.2072798,
    "einwohner": 3189,
    "waehlbar": true
  },
  {
    "name": "Innerer Saldurspitz/Punta Saldura di Dentro",
    "alternativen": [
      "Punta Saldura di Dentro",
      "Innerer Saldurspitz"
    ],
    "lat": 46.7278009,
    "lon": 10.740981,
    "einwohner": 3188,
    "waehlbar": true
  },
  {
    "name": "Pleresspitze/Cima di Pleres",
    "alternativen": [
      "Cima di Pleres",
      "Pleresspitze"
    ],
    "lat": 46.7600078,
    "lon": 10.6752531,
    "einwohner": 3188,
    "waehlbar": true
  },
  {
    "name": "Pederknott",
    "alternativen": [
      "Franzisco",
      "Pederknott",
      "Josephinische Landesaufnahme"
    ],
    "lat": 46.5041431,
    "lon": 10.6440083,
    "einwohner": 3185,
    "waehlbar": false
  },
  {
    "name": "Rappenspitz/Punta Corvara",
    "alternativen": [
      "Rappenspitz",
      "Punta Corvara"
    ],
    "lat": 46.7137889,
    "lon": 10.7183013,
    "einwohner": 3182,
    "waehlbar": true
  },
  {
    "name": "Langkofel/Sassolungo",
    "alternativen": [
      "Langkofel",
      "Saslench",
      "Sassolungo",
      "Saslonch"
    ],
    "lat": 46.5249417,
    "lon": 11.7353107,
    "einwohner": 3181,
    "waehlbar": true
  },
  {
    "name": "Großes Kahndl/Gran Cadola",
    "alternativen": [
      "Gran Cadola",
      "Großes Kahndl"
    ],
    "lat": 46.7642243,
    "lon": 10.8310286,
    "einwohner": 3179,
    "waehlbar": false
  },
  {
    "name": "Mitterlochspitz/Punta Luco di Mezzo",
    "alternativen": [
      "Punta Luco di Mezzo",
      "Mitterlochspitz"
    ],
    "lat": 46.7995216,
    "lon": 10.6527936,
    "einwohner": 3176,
    "waehlbar": true
  },
  {
    "name": "Malanderspitz/Malandro",
    "alternativen": [
      "Malander",
      "Malanderspitz",
      "Malandro"
    ],
    "lat": 46.6851435,
    "lon": 10.8078875,
    "einwohner": 3176,
    "waehlbar": true
  },
  {
    "name": "Upikopf/Monte Upi",
    "alternativen": [
      "Monte Upi",
      "Upikopf"
    ],
    "lat": 46.7089815,
    "lon": 10.7162634,
    "einwohner": 3175,
    "waehlbar": true
  },
  {
    "name": "Gfallwand/Croda del Tovale",
    "alternativen": [
      "Gfallwand",
      "Croda del Tovale"
    ],
    "lat": 46.6989793,
    "lon": 10.9960855,
    "einwohner": 3174,
    "waehlbar": true
  },
  {
    "name": "Schneespitze/Monte della Neve",
    "alternativen": [
      "Schneebinggl",
      "Schneespitze",
      "Monte della Neve"
    ],
    "lat": 46.9741615,
    "lon": 11.2566619,
    "einwohner": 3174,
    "waehlbar": true
  },
  {
    "name": "Blaulackenspitze/Cima del Lago Azzurro",
    "alternativen": [
      "Cima del Lago Azzurro",
      "Blaulackenspitze"
    ],
    "lat": 46.710953,
    "lon": 10.9775977,
    "einwohner": 3173,
    "waehlbar": true
  },
  {
    "name": "Mittlerer Rosshuf",
    "alternativen": [
      "Mittlerer Rosshuf",
      "Führer Venedigergruppe (End / Peterka)"
    ],
    "lat": 47.0594029,
    "lon": 12.2141618,
    "einwohner": 3173,
    "waehlbar": false
  },
  {
    "name": "Großer Fensterlekofel",
    "alternativen": [
      "Großer Fensterlekofel"
    ],
    "lat": 46.893373,
    "lon": 12.0471451,
    "einwohner": 3171,
    "waehlbar": true
  },
  {
    "name": "Östlicher Rosshuf",
    "alternativen": [
      "Östlicher Rosshuf",
      "Führer Venedigergruppe (End / Peterka)"
    ],
    "lat": 47.0603247,
    "lon": 12.2223826,
    "einwohner": 3165,
    "waehlbar": true
  },
  {
    "name": "Schwarzwand/Croda Nera",
    "alternativen": [
      "Schwarzwand",
      "Croda Nera"
    ],
    "lat": 46.737265,
    "lon": 11.0022058,
    "einwohner": 3164,
    "waehlbar": false
  },
  {
    "name": "Innerer Kofel/Cima di Dentro",
    "alternativen": [
      "Cima di Dentro",
      "Franzisco",
      "Innerer Kofel",
      "Josephinische Landesaufnahme"
    ],
    "lat": 46.4620335,
    "lon": 10.6262245,
    "einwohner": 3164,
    "waehlbar": false
  },
  {
    "name": "Fürkelekuppe",
    "alternativen": [
      "Fürkelekuppe"
    ],
    "lat": 46.4504942,
    "lon": 10.6624388,
    "einwohner": 3164,
    "waehlbar": false
  },
  {
    "name": "Muntpitschen/Monpiccio",
    "alternativen": [
      "Monpiccio",
      "Muntpitschen"
    ],
    "lat": 46.7089985,
    "lon": 10.416068,
    "einwohner": 3161,
    "waehlbar": true
  },
  {
    "name": "Hintere Karlesspitze",
    "alternativen": [
      "Hintere Karlesspitze"
    ],
    "lat": 46.857925,
    "lon": 10.693242,
    "einwohner": 3160,
    "waehlbar": true
  },
  {
    "name": "Trinkerkogel",
    "alternativen": [
      "Trinkerkogel",
      "DuÖAV Karte 18997",
      "Flinker Kogel"
    ],
    "lat": 46.812784,
    "lon": 11.0606306,
    "einwohner": 3160,
    "waehlbar": true
  },
  {
    "name": "Pleisshorn/Corno di Plaies",
    "alternativen": [
      "Pleisshorn",
      "Corno di Plaies"
    ],
    "lat": 46.5142888,
    "lon": 10.5235208,
    "einwohner": 3160,
    "waehlbar": false
  },
  {
    "name": "Plamjackspitz",
    "alternativen": [
      "Plamjackspitz"
    ],
    "lat": 46.7526096,
    "lon": 10.665333,
    "einwohner": 3159,
    "waehlbar": false
  },
  {
    "name": "Mulle",
    "alternativen": [
      "Mulle"
    ],
    "lat": 46.9510191,
    "lon": 12.1541576,
    "einwohner": 3158,
    "waehlbar": true
  },
  {
    "name": "Rotebenkogel/Cima del Piano Rosso",
    "alternativen": [
      "Cima del Piano Rosso",
      "Rotebenkogel"
    ],
    "lat": 46.8021187,
    "lon": 10.6701582,
    "einwohner": 3157,
    "waehlbar": true
  },
  {
    "name": "Hinterer Gramsenspitz/Cima di Grames di Dentro",
    "alternativen": [
      "Hinterer Gramsenspitz",
      "Cima di Grames di Dentro"
    ],
    "lat": 46.4719457,
    "lon": 10.7164361,
    "einwohner": 3157,
    "waehlbar": false
  },
  {
    "name": "Winkelspitze",
    "alternativen": [
      "Winkelspitze"
    ],
    "lat": 46.9441268,
    "lon": 12.1625793,
    "einwohner": 3156,
    "waehlbar": true
  },
  {
    "name": "Östliche Floitenspitze/Cima di Floite Est",
    "alternativen": [
      "Östliche Floitenspitze",
      "Cima di Floite Est"
    ],
    "lat": 47.0230684,
    "lon": 11.9011099,
    "einwohner": 3154,
    "waehlbar": true
  },
  {
    "name": "Innerer Portlesspitz",
    "alternativen": [
      "Innerer Portlesspitz"
    ],
    "lat": 46.7502277,
    "lon": 10.6586347,
    "einwohner": 3153,
    "waehlbar": false
  },
  {
    "name": "Piz Boè",
    "alternativen": [
      "Piz Boè"
    ],
    "lat": 46.5089363,
    "lon": 11.8283485,
    "einwohner": 3152,
    "waehlbar": true
  },
  {
    "name": "Dreischusterspitze/Punta dei Tre Scarperi",
    "alternativen": [
      "Punta dei Tre Scarperi",
      "Dreischusterspitze",
      "Schuster"
    ],
    "lat": 46.6679716,
    "lon": 12.3176,
    "einwohner": 3152,
    "waehlbar": true
  },
  {
    "name": "Grafspitz/Cima della Grava",
    "alternativen": [
      "Cima della Grava",
      "Grafspitz"
    ],
    "lat": 46.7494188,
    "lon": 11.0385757,
    "einwohner": 3149,
    "waehlbar": false
  },
  {
    "name": "Vordere Hornspitze/Monte Corno",
    "alternativen": [
      "Monte Corno",
      "Vordere Hornspitze"
    ],
    "lat": 46.9930062,
    "lon": 11.8361981,
    "einwohner": 3148,
    "waehlbar": true
  },
  {
    "name": "Großer Rotstein",
    "alternativen": [
      "Großer Rotstein"
    ],
    "lat": 46.9531753,
    "lon": 12.1477712,
    "einwohner": 3147,
    "waehlbar": true
  },
  {
    "name": "Schönblickkopf",
    "alternativen": [
      "Schönblickkopf"
    ],
    "lat": 46.7739372,
    "lon": 10.7132398,
    "einwohner": 3146,
    "waehlbar": false
  },
  {
    "name": "Drischlwand/Croda della Trebbia",
    "alternativen": [
      "Drischlwand",
      "Croda della Trebbia",
      "Flegelwand"
    ],
    "lat": 46.518918,
    "lon": 10.6584577,
    "einwohner": 3145,
    "waehlbar": false
  },
  {
    "name": "Hennesiglspitz/Punta della Gallina",
    "alternativen": [
      "Punta della Gallina",
      "Hennesiglspitz"
    ],
    "lat": 46.875489,
    "lon": 10.6673729,
    "einwohner": 3144,
    "waehlbar": true
  },
  {
    "name": "Hennesiglspitz/Punta della Gallina",
    "alternativen": [
      "Punta della Gallina",
      "Hennesiglspitz"
    ],
    "lat": 46.8754934,
    "lon": 10.6673837,
    "einwohner": 3144,
    "waehlbar": true
  },
  {
    "name": "Großer Rauchkofel",
    "alternativen": [
      "Großer Rauchkofel"
    ],
    "lat": 46.8925886,
    "lon": 12.0424542,
    "einwohner": 3143,
    "waehlbar": true
  },
  {
    "name": "Westlicher Rosshuf",
    "alternativen": [
      "Westlicher Rosshuf",
      "Führer Venedigergruppe (End / Peterka)"
    ],
    "lat": 47.059198,
    "lon": 12.2112551,
    "einwohner": 3143,
    "waehlbar": false
  },
  {
    "name": "Hohe Gaisl/Croda Rossa d'Ampezzo",
    "alternativen": [
      "Hohe Gaisl",
      "Croda Rossa d'Ampezzo",
      "Crep Checio"
    ],
    "lat": 46.6340637,
    "lon": 12.1446665,
    "einwohner": 3140,
    "waehlbar": true
  },
  {
    "name": "Taitschroi/Cima Tedesca",
    "alternativen": [
      "Taitschroi",
      "Cima Tedesca"
    ],
    "lat": 46.5725187,
    "lon": 10.6545797,
    "einwohner": 3138,
    "waehlbar": true
  },
  {
    "name": "Kleines Hasenohr",
    "alternativen": [
      "Kleines Hasenohr"
    ],
    "lat": 46.5418442,
    "lon": 10.8400505,
    "einwohner": 3136,
    "waehlbar": false
  },
  {
    "name": "Westlicher Gerstgraserspitz/Punta di Cortiserrade Ovest",
    "alternativen": [
      "Westlicher Gerstgraserspitz",
      "Punta di Cortiserrade Ovest"
    ],
    "lat": 46.7044504,
    "lon": 10.8055092,
    "einwohner": 3136,
    "waehlbar": true
  },
  {
    "name": "Scheiberkogel/Cima Rocciosa",
    "alternativen": [
      "Scheiberkogel",
      "Cima Rocciosa"
    ],
    "lat": 46.8081017,
    "lon": 11.0569733,
    "einwohner": 3135,
    "waehlbar": true
  },
  {
    "name": "Durreck/Cima Dura",
    "alternativen": [
      "Durreck",
      "Cima Dura"
    ],
    "lat": 46.9611127,
    "lon": 12.0290289,
    "einwohner": 3135,
    "waehlbar": true
  },
  {
    "name": "Wasserkopf/Cima dell'Acqua",
    "alternativen": [
      "Wasserkopf",
      "Cima dell'Acqua"
    ],
    "lat": 46.8932496,
    "lon": 12.0541951,
    "einwohner": 3135,
    "waehlbar": true
  },
  {
    "name": "Wilde Kreuzspitze/Picco della Croce",
    "alternativen": [
      "Wilde Kreuzspitze",
      "Picco della Croce"
    ],
    "lat": 46.9134604,
    "lon": 11.5937326,
    "einwohner": 3135,
    "waehlbar": true
  },
  {
    "name": "Foratrida",
    "alternativen": [
      "Foratrida"
    ],
    "lat": 46.7051442,
    "lon": 10.4088982,
    "einwohner": 3134,
    "waehlbar": true
  },
  {
    "name": "Litznerkopf",
    "alternativen": [
      "Litznerkopf"
    ],
    "lat": 46.6832041,
    "lon": 10.6828406,
    "einwohner": 3134,
    "waehlbar": false
  },
  {
    "name": "Königshofspitz/Monte Reale",
    "alternativen": [
      "Königshofspitz",
      "Monte Reale"
    ],
    "lat": 46.93685,
    "lon": 11.1865606,
    "einwohner": 3133,
    "waehlbar": true
  },
  {
    "name": "Hoher Wiegenspitz/Cima Culla",
    "alternativen": [
      "Hoher Wiegenspitz",
      "Cima Culla",
      "Wiegenspitz"
    ],
    "lat": 46.6820581,
    "lon": 10.8299257,
    "einwohner": 3129,
    "waehlbar": false
  },
  {
    "name": "Hinteres Schöneck/Dossobello di Dentro",
    "alternativen": [
      "Hinteres Schöneck",
      "Dossobello di Dentro"
    ],
    "lat": 46.5504076,
    "lon": 10.6048,
    "einwohner": 3128,
    "waehlbar": true
  },
  {
    "name": "Tabarettaspitze/Punta Tabaretta",
    "alternativen": [
      "Tabarettaspitze",
      "Punta Tabaretta"
    ],
    "lat": 46.5252842,
    "lon": 10.5423681,
    "einwohner": 3128,
    "waehlbar": true
  },
  {
    "name": "Gamstod (Hohe Warte)",
    "alternativen": [
      "Gamstod (Hohe Warte)",
      "ÖK50",
      "Karte",
      "S.433;Tabacco",
      "Führer Willi End"
    ],
    "lat": 47.0589149,
    "lon": 12.2076803,
    "einwohner": 3127,
    "waehlbar": true
  },
  {
    "name": "Gelttalspitze/Cima Valfredda",
    "alternativen": [
      "Cima Valfredda",
      "Gelttalspitze"
    ],
    "lat": 46.8966304,
    "lon": 12.0830935,
    "einwohner": 3126,
    "waehlbar": true
  },
  {
    "name": "Wilde Kreuzspitze Südgipfel/Picco della Croce Cima Sud",
    "alternativen": [
      "Wilde Kreuzspitze Südgipfel",
      "Picco della Croce Cima Sud"
    ],
    "lat": 46.9124058,
    "lon": 11.5932456,
    "einwohner": 3126,
    "waehlbar": false
  },
  {
    "name": "Cresta Strenta",
    "alternativen": [
      "Cresta Strenta"
    ],
    "lat": 46.5129024,
    "lon": 11.8293025,
    "einwohner": 3125,
    "waehlbar": false
  },
  {
    "name": "Schneidlahnerspitz",
    "alternativen": [
      "https://flurnamen.natura.museum/",
      "FJLA",
      "Hohe Stellen",
      "Schneidlahnerspitz"
    ],
    "lat": 46.9388294,
    "lon": 11.1795388,
    "einwohner": 3124,
    "waehlbar": false
  },
  {
    "name": "Fenneregg",
    "alternativen": [
      "Fenneregg"
    ],
    "lat": 46.9332535,
    "lon": 12.1678279,
    "einwohner": 3123,
    "waehlbar": true
  },
  {
    "name": "Östlicher Hennesiglkopf/Croda Est della Gallina",
    "alternativen": [
      "Croda Est della Gallina",
      "Östlicher Hennesiglkopf"
    ],
    "lat": 46.8721186,
    "lon": 10.6603251,
    "einwohner": 3116,
    "waehlbar": true
  },
  {
    "name": "Grohmannspitze/Punta Grohmann",
    "alternativen": [
      "Sasso Levante",
      "Grohmannspitze",
      "Sas da duman",
      "Punta Grohmann"
    ],
    "lat": 46.5106,
    "lon": 11.732966,
    "einwohner": 3114,
    "waehlbar": true
  },
  {
    "name": "Pederfick/Pietrafitta",
    "alternativen": [
      "Pederfick",
      "Pietrafitta"
    ],
    "lat": 46.5672842,
    "lon": 10.6037168,
    "einwohner": 3114,
    "waehlbar": true
  },
  {
    "name": "Hofmannspitze/Cima Piccola",
    "alternativen": [
      "Hofmannspitze",
      "Cima Piccola"
    ],
    "lat": 46.9427241,
    "lon": 11.1746937,
    "einwohner": 3113,
    "waehlbar": true
  },
  {
    "name": "Flimkanzel/Pulpito di Flim",
    "alternativen": [
      "Pulpito di Flim",
      "Flimkanzel"
    ],
    "lat": 46.5304819,
    "lon": 10.8158064,
    "einwohner": 3113,
    "waehlbar": false
  },
  {
    "name": "Kortscher Schafkopf",
    "alternativen": [
      "Kortscher Schafkopf"
    ],
    "lat": 46.7184322,
    "lon": 10.7520806,
    "einwohner": 3111,
    "waehlbar": false
  },
  {
    "name": "Danzebell/Cima Dentrovalle",
    "alternativen": [
      "Danzebell",
      "Cima Dentrovalle"
    ],
    "lat": 46.779997,
    "lon": 10.6344177,
    "einwohner": 3110,
    "waehlbar": true
  },
  {
    "name": "Zerminiger/Cima Cermigna",
    "alternativen": [
      "Cima Cermigna",
      "Zerminiger"
    ],
    "lat": 46.6700622,
    "lon": 10.8179158,
    "einwohner": 3110,
    "waehlbar": true
  },
  {
    "name": "Schwarze Wand/Croda Nera",
    "alternativen": [
      "Croda Nera",
      "Schwarze Wand"
    ],
    "lat": 46.8856444,
    "lon": 12.0658531,
    "einwohner": 3105,
    "waehlbar": true
  },
  {
    "name": "Kleineiskogel/Cima della Vedretta Piccola",
    "alternativen": [
      "Cima della Vedretta Piccola",
      "Kleineiskogel"
    ],
    "lat": 46.5050578,
    "lon": 10.5198239,
    "einwohner": 3105,
    "waehlbar": false
  },
  {
    "name": "Kortscher Schafberg/Monte delle Pecore",
    "alternativen": [
      "Kortscher Schafberg",
      "Monte delle Pecore"
    ],
    "lat": 46.7195271,
    "lon": 10.7545194,
    "einwohner": 3102,
    "waehlbar": false
  },
  {
    "name": "Tuferspitz/Cima di Tovo",
    "alternativen": [
      "Cima di Tovo",
      "Tuferspitz"
    ],
    "lat": 46.531501,
    "lon": 10.8285663,
    "einwohner": 3097,
    "waehlbar": true
  },
  {
    "name": "Valtlswarter",
    "alternativen": [
      "Valtlswarter"
    ],
    "lat": 46.7685423,
    "lon": 10.9447222,
    "einwohner": 3097,
    "waehlbar": false
  },
  {
    "name": "Hochflachkofel",
    "alternativen": [
      "Hochflachkofel",
      "ÖK50"
    ],
    "lat": 46.8986741,
    "lon": 12.1243923,
    "einwohner": 3097,
    "waehlbar": false
  },
  {
    "name": "Keilbachspitz/Punta del Conio",
    "alternativen": [
      "Keilbachspitz",
      "Punta del Conio"
    ],
    "lat": 47.0334303,
    "lon": 11.9469105,
    "einwohner": 3093,
    "waehlbar": true
  },
  {
    "name": "Wesselyturm/Il Gran Campanile",
    "alternativen": [
      "Il Gran Campanile",
      "Wesselyturm",
      "Ciampanil Wessely"
    ],
    "lat": 46.5241787,
    "lon": 11.73187,
    "einwohner": 3093,
    "waehlbar": false
  },
  {
    "name": "Nasse Wand / Naßwandspitze",
    "alternativen": [
      "Nasse Wand / Naßwandspitze",
      "Naßwandspitze",
      "Nasse Wand"
    ],
    "lat": 46.868265,
    "lon": 10.682063,
    "einwohner": 3092,
    "waehlbar": true
  },
  {
    "name": "Lengspitz/Pizzo Lungo",
    "alternativen": [
      "Lengspitz",
      "Pizzo Lungo"
    ],
    "lat": 47.0157137,
    "lon": 12.1310303,
    "einwohner": 3090,
    "waehlbar": true
  },
  {
    "name": "Merbspitz/Punta Merbe",
    "alternativen": [
      "Punta Merbe",
      "Merbspitz"
    ],
    "lat": 47.0249,
    "lon": 12.1474117,
    "einwohner": 3090,
    "waehlbar": true
  },
  {
    "name": "Elferkofel/Cima Undici",
    "alternativen": [
      "Elferkofel",
      "Cima Undici"
    ],
    "lat": 46.6360396,
    "lon": 12.3787741,
    "einwohner": 3090,
    "waehlbar": true
  },
  {
    "name": "Sattelnock/Cima di Sella",
    "alternativen": [
      "Sattelnock",
      "Cima di Sella"
    ],
    "lat": 46.9798865,
    "lon": 11.8141987,
    "einwohner": 3084,
    "waehlbar": false
  },
  {
    "name": "Graues Nöckl/Dosso Grigio",
    "alternativen": [
      "Dosso Grigio",
      "Graues Nöckl"
    ],
    "lat": 46.9144263,
    "lon": 12.1325056,
    "einwohner": 3084,
    "waehlbar": true
  },
  {
    "name": "Alprechtspitz/Punta di Alpre",
    "alternativen": [
      "Alprechtspitz",
      "Arventalspitze;Affentalspitze",
      "Punta di Alpre"
    ],
    "lat": 47.008434,
    "lon": 12.12316,
    "einwohner": 3083,
    "waehlbar": true
  },
  {
    "name": "Patscher Schneid",
    "alternativen": [
      "Patscher Schneid"
    ],
    "lat": 46.9239667,
    "lon": 12.1576841,
    "einwohner": 3082,
    "waehlbar": true
  },
  {
    "name": "Madatschknott/Montaccio",
    "alternativen": [
      "Montaccio",
      "Madatschknott"
    ],
    "lat": 46.6782514,
    "lon": 10.6765294,
    "einwohner": 3081,
    "waehlbar": false
  },
  {
    "name": "Langkofeleck/Spallone del Sassolungo",
    "alternativen": [
      "Spallone del Sassolungo",
      "Langkofeleck"
    ],
    "lat": 46.5179653,
    "lon": 11.7412355,
    "einwohner": 3081,
    "waehlbar": false
  },
  {
    "name": "Piza Innerkofler/Innerkoflerturm/Plan de Sass",
    "alternativen": [
      "Innerkoflerturm",
      "Plan de Sass",
      "Piza Innerkofler"
    ],
    "lat": 46.5113315,
    "lon": 11.7302229,
    "einwohner": 3081,
    "waehlbar": false
  },
  {
    "name": "Lahnbachspitze",
    "alternativen": [
      "Lahnbachspitze"
    ],
    "lat": 46.693929,
    "lon": 11.0034522,
    "einwohner": 3080,
    "waehlbar": false
  },
  {
    "name": "Ginggljöchlspitze",
    "alternativen": [
      "Franziszeische Landesaufnahme",
      "Ginggljöchlspitze"
    ],
    "lat": 46.7009665,
    "lon": 10.9884342,
    "einwohner": 3077,
    "waehlbar": false
  },
  {
    "name": "Gabelspitze/Cima di Forca",
    "alternativen": [
      "Gabelspitze",
      "Cima di Forca"
    ],
    "lat": 47.0057364,
    "lon": 12.1212338,
    "einwohner": 3076,
    "waehlbar": true
  },
  {
    "name": "Rocholspitz",
    "alternativen": [
      "Rocholspitz"
    ],
    "lat": 46.9623325,
    "lon": 11.250297,
    "einwohner": 3076,
    "waehlbar": false
  },
  {
    "name": "Muttenock/Monte Muta",
    "alternativen": [
      "Muttenock",
      "Monte Muta"
    ],
    "lat": 46.9727486,
    "lon": 11.7643402,
    "einwohner": 3076,
    "waehlbar": true
  },
  {
    "name": "Kleiner Schuster/Punta Piccola degli Scarperi",
    "alternativen": [
      "Kleinschusterspitze",
      "Punta Piccola degli Scarperi",
      "Kleiner Schuster"
    ],
    "lat": 46.666197,
    "lon": 12.3158199,
    "einwohner": 3075,
    "waehlbar": false
  },
  {
    "name": "Portlesspitze/Pizzo Portles",
    "alternativen": [
      "Pizzo Portles",
      "Portlesspitze"
    ],
    "lat": 46.7444225,
    "lon": 10.647688,
    "einwohner": 3074,
    "waehlbar": true
  },
  {
    "name": "Morgenkofel/Cima Mattina",
    "alternativen": [
      "Morgenkofel",
      "Cima Mattina"
    ],
    "lat": 46.8878592,
    "lon": 12.0576126,
    "einwohner": 3073,
    "waehlbar": true
  },
  {
    "name": "Tre Cannoni",
    "alternativen": [
      "Tre Cannoni"
    ],
    "lat": 46.4673571,
    "lon": 10.6190638,
    "einwohner": 3072,
    "waehlbar": false
  },
  {
    "name": "Östlicher Hochwart/Monte Guardia Alta Est",
    "alternativen": [
      "Monte Guardia Alta Est",
      "Östlicher Hochwart"
    ],
    "lat": 46.9508333,
    "lon": 11.7197676,
    "einwohner": 3068,
    "waehlbar": true
  },
  {
    "name": "Tiergartenspitze/Monte del Parco",
    "alternativen": [
      "Monte del Parco",
      "Tiergartenspitze"
    ],
    "lat": 46.8107022,
    "lon": 10.6402594,
    "einwohner": 3068,
    "waehlbar": true
  },
  {
    "name": "Naßwandegg",
    "alternativen": [
      "Naßwandegg"
    ],
    "lat": 46.87057,
    "lon": 10.677708,
    "einwohner": 3066,
    "waehlbar": false
  },
  {
    "name": "Südlicher Möselenock",
    "alternativen": [
      "Südlicher Möselenock"
    ],
    "lat": 46.9807124,
    "lon": 11.7842563,
    "einwohner": 3066,
    "waehlbar": true
  },
  {
    "name": "Gamsspitze/Punta dei Camosci",
    "alternativen": [
      "Punta dei Camosci",
      "Gamsspitze"
    ],
    "lat": 46.8021893,
    "lon": 10.6479245,
    "einwohner": 3066,
    "waehlbar": false
  },
  {
    "name": "Cunturines-Spitze/Piz dles Cunturines",
    "alternativen": [
      "Piz dles Cunturines",
      "Cunturines",
      "Cunturines-Spitze",
      "Spitze"
    ],
    "lat": 46.575705,
    "lon": 11.9777711,
    "einwohner": 3064,
    "waehlbar": true
  },
  {
    "name": "Penaudspitz",
    "alternativen": [
      "Penaudspitz"
    ],
    "lat": 46.6754218,
    "lon": 10.8258764,
    "einwohner": 3063,
    "waehlbar": false
  },
  {
    "name": "Durrerspitze",
    "alternativen": [
      "Durrerspitze",
      "ÖK50"
    ],
    "lat": 46.9088569,
    "lon": 12.1494501,
    "einwohner": 3063,
    "waehlbar": false
  },
  {
    "name": "Speiker/Cima di Croda Rossa",
    "alternativen": [
      "Speiker",
      "Cima di Croda Rossa"
    ],
    "lat": 47.0415802,
    "lon": 11.9851467,
    "einwohner": 3062,
    "waehlbar": false
  },
  {
    "name": "Piz Starlex",
    "alternativen": [
      "Piz Starlex"
    ],
    "lat": 46.6605191,
    "lon": 10.39256,
    "einwohner": 3062,
    "waehlbar": true
  },
  {
    "name": "Kalfanwand/Croda della Calva",
    "alternativen": [
      "Kalfanwand",
      "Croda della Calva"
    ],
    "lat": 46.5144372,
    "lon": 10.6779039,
    "einwohner": 3061,
    "waehlbar": false
  },
  {
    "name": "Großer Moosstock/Picco Palù",
    "alternativen": [
      "Picco Palù",
      "Großer Moosstock"
    ],
    "lat": 46.9508105,
    "lon": 12.0225521,
    "einwohner": 3059,
    "waehlbar": true
  },
  {
    "name": "Grabspitz/Cima Grava",
    "alternativen": [
      "Cima Grava",
      "Grabspitz"
    ],
    "lat": 46.9389756,
    "lon": 11.6145219,
    "einwohner": 3059,
    "waehlbar": true
  },
  {
    "name": "Hinterer Kitzkogel",
    "alternativen": [
      "Hinterer Kitzkogel"
    ],
    "lat": 46.9292927,
    "lon": 11.127634,
    "einwohner": 3059,
    "waehlbar": false
  },
  {
    "name": "Schwarzwand",
    "alternativen": [
      "Schwarzwand"
    ],
    "lat": 46.7046372,
    "lon": 10.999846,
    "einwohner": 3059,
    "waehlbar": false
  },
  {
    "name": "Kleinweiße/Cima Bianca Piccola",
    "alternativen": [
      "Cima Bianca Piccola",
      "Kleinweiße"
    ],
    "lat": 46.7442587,
    "lon": 11.0270959,
    "einwohner": 3056,
    "waehlbar": false
  },
  {
    "name": "Hinterer Kitzkogel Südgipfel",
    "alternativen": [
      "Hinterer Kitzkogel Südgipfel"
    ],
    "lat": 46.9276584,
    "lon": 11.12954,
    "einwohner": 3056,
    "waehlbar": false
  },
  {
    "name": "Piz de Lavarela/La Varella",
    "alternativen": [
      "Piz de Lavarela",
      "La Varella"
    ],
    "lat": 46.5851256,
    "lon": 11.9711128,
    "einwohner": 3055,
    "waehlbar": true
  },
  {
    "name": "Kirchbachspitze/Croda del Clivio",
    "alternativen": [
      "Croda del Clivio",
      "Kirchbachspitze",
      "Monte di Chiesa",
      "Kirchbachkreuz"
    ],
    "lat": 46.6889613,
    "lon": 10.9944706,
    "einwohner": 3053,
    "waehlbar": true
  },
  {
    "name": "Kreuzspitz",
    "alternativen": [
      "Historischer Kataster;Franzisco",
      "Kreuzspitz",
      "Kleiner Mastaun",
      "Josephinische Landesaufnahme"
    ],
    "lat": 46.7033485,
    "lon": 10.8138742,
    "einwohner": 3052,
    "waehlbar": false
  },
  {
    "name": "Ahrner Kopf/Cima del Vento",
    "alternativen": [
      "Ahrner Kopf",
      "Cima del Vento"
    ],
    "lat": 47.0478535,
    "lon": 12.2169702,
    "einwohner": 3051,
    "waehlbar": true
  },
  {
    "name": "Königskogel/Monte Re",
    "alternativen": [
      "Östl. Königskogel",
      "Königskogel",
      "Monte Re"
    ],
    "lat": 46.8580817,
    "lon": 11.0730491,
    "einwohner": 3050,
    "waehlbar": true
  },
  {
    "name": "Kleiner Löffler/Punta Cucchiaio Piccolo",
    "alternativen": [
      "Kleiner Löffler",
      "Purtschellerspitze",
      "Punta Cucchiaio Piccolo"
    ],
    "lat": 47.0236792,
    "lon": 12.1736012,
    "einwohner": 3050,
    "waehlbar": true
  },
  {
    "name": "Edelrautenkopf",
    "alternativen": [
      "Edelrautenkopf"
    ],
    "lat": 46.7873321,
    "lon": 10.6469648,
    "einwohner": 3050,
    "waehlbar": false
  },
  {
    "name": "Vertainen",
    "alternativen": [
      "Vertainen"
    ],
    "lat": 46.4976497,
    "lon": 10.6563461,
    "einwohner": 3049,
    "waehlbar": false
  },
  {
    "name": "Kleiner Rotstein",
    "alternativen": [
      "Kleiner Rotstein"
    ],
    "lat": 46.9564822,
    "lon": 12.1381436,
    "einwohner": 3048,
    "waehlbar": true
  },
  {
    "name": "Weißseekopf",
    "alternativen": [
      "Weißseekopf"
    ],
    "lat": 46.8676615,
    "lon": 10.6902397,
    "einwohner": 3046,
    "waehlbar": false
  },
  {
    "name": "Hochbrunnerschneid/Monte Popera",
    "alternativen": [
      "Monte Popera",
      "Hochbrunnerschneid"
    ],
    "lat": 46.6273415,
    "lon": 12.3897446,
    "einwohner": 3046,
    "waehlbar": true
  },
  {
    "name": "Adlerkopf",
    "alternativen": [
      "Adlerkopf"
    ],
    "lat": 46.8328981,
    "lon": 10.7056322,
    "einwohner": 3045,
    "waehlbar": false
  },
  {
    "name": "Westlicher Hochwart/Monte Guardia Alta Ovest",
    "alternativen": [
      "Monte Guardia Alta Ovest",
      "Westlicher Hochwart"
    ],
    "lat": 46.9503378,
    "lon": 11.7139692,
    "einwohner": 3045,
    "waehlbar": true
  },
  {
    "name": "Rotspitz/Croda Rossa",
    "alternativen": [
      "Rotspitz",
      "Croda Rossa"
    ],
    "lat": 46.5630172,
    "lon": 10.7089312,
    "einwohner": 3042,
    "waehlbar": false
  },
  {
    "name": "Große Windschar/Cima del Vento",
    "alternativen": [
      "Große Windschar",
      "Cima del Vento"
    ],
    "lat": 46.8897503,
    "lon": 12.0169574,
    "einwohner": 3041,
    "waehlbar": true
  },
  {
    "name": "Haupenhöhe",
    "alternativen": [
      "Haupenhöhe"
    ],
    "lat": 46.9932502,
    "lon": 11.7113913,
    "einwohner": 3041,
    "waehlbar": true
  },
  {
    "name": "Schlanderser Schafkopf/Monte delle Pecore",
    "alternativen": [
      "Monte delle Pecore",
      "Schlanderser Schafkopf"
    ],
    "lat": 46.6881176,
    "lon": 10.7442211,
    "einwohner": 3039,
    "waehlbar": false
  },
  {
    "name": "Lazinser Rötelspitze/Cima Rosa",
    "alternativen": [
      "Cima Rosa",
      "Lazinser Rötelspitze",
      "Cima Rosa di Sopranes"
    ],
    "lat": 46.7233875,
    "lon": 11.0490698,
    "einwohner": 3038,
    "waehlbar": true
  },
  {
    "name": "Spitzat",
    "alternativen": [
      "Spitzat"
    ],
    "lat": 46.7550339,
    "lon": 10.7168859,
    "einwohner": 3038,
    "waehlbar": false
  },
  {
    "name": "Timmelsspitz/Monte Tumulo",
    "alternativen": [
      "Monte Tumulo",
      "Timmelsspitz"
    ],
    "lat": 46.9200134,
    "lon": 11.2005591,
    "einwohner": 3037,
    "waehlbar": false
  },
  {
    "name": "Grabensprungspitz/Cima Fosso Alto",
    "alternativen": [
      "Cima Fosso Alto",
      "Grabensprungspitz"
    ],
    "lat": 46.5479544,
    "lon": 10.8358288,
    "einwohner": 3037,
    "waehlbar": false
  },
  {
    "name": "Racinespitz/Monte Razim",
    "alternativen": [
      "Racinespitz",
      "Monte Razim"
    ],
    "lat": 46.8310114,
    "lon": 11.086735,
    "einwohner": 3035,
    "waehlbar": false
  },
  {
    "name": "Virgenkopf",
    "alternativen": [
      "Virgenkopf",
      "Virglkopf"
    ],
    "lat": 47.0416172,
    "lon": 12.2124302,
    "einwohner": 3035,
    "waehlbar": true
  },
  {
    "name": "Ebener First",
    "alternativen": [
      "Ebener First"
    ],
    "lat": 46.8259776,
    "lon": 11.1010826,
    "einwohner": 3034,
    "waehlbar": false
  },
  {
    "name": "Lavarela de Fora",
    "alternativen": [
      "Lavarela de Fora"
    ],
    "lat": 46.5838589,
    "lon": 11.9673431,
    "einwohner": 3034,
    "waehlbar": false
  },
  {
    "name": "Vorderer Rotspitz/Cima Rossa di Martello",
    "alternativen": [
      "Cima Rossa di Martello",
      "Vorderer Rotspitz"
    ],
    "lat": 46.4773468,
    "lon": 10.7060454,
    "einwohner": 3033,
    "waehlbar": false
  },
  {
    "name": "Dreieckspitze/Triangolo di Riva",
    "alternativen": [
      "Dreieckspitze",
      "Triangolo di Riva"
    ],
    "lat": 46.9640751,
    "lon": 12.1310686,
    "einwohner": 3031,
    "waehlbar": true
  },
  {
    "name": "Soyspitz/Cima di Soi",
    "alternativen": [
      "Soyspitz",
      "Cima di Soi"
    ],
    "lat": 46.5122011,
    "lon": 10.7980584,
    "einwohner": 3030,
    "waehlbar": false
  },
  {
    "name": "Piz Valdasass/Cima Valdassa",
    "alternativen": [
      "Piz Valdasass",
      "Cima Valdassa"
    ],
    "lat": 46.6993951,
    "lon": 10.4134507,
    "einwohner": 3027,
    "waehlbar": true
  },
  {
    "name": "Zehner Spitze/Cima Dieci",
    "alternativen": [
      "Zehner Spitze",
      "Cima Dieci",
      "Piza dales Diesc"
    ],
    "lat": 46.6223325,
    "lon": 11.9608891,
    "einwohner": 3026,
    "waehlbar": true
  },
  {
    "name": "Blaue Schneid/Cresta Azzurra",
    "alternativen": [
      "Cresta Azzurra",
      "Blaue Schneid"
    ],
    "lat": 46.5514832,
    "lon": 10.8620832,
    "einwohner": 3026,
    "waehlbar": true
  },
  {
    "name": "Sass Rigais/Sass Rigais",
    "alternativen": [
      "Sas Rigais",
      "Sass Rigais"
    ],
    "lat": 46.6092876,
    "lon": 11.7668196,
    "einwohner": 3025,
    "waehlbar": true
  },
  {
    "name": "Furchetta/Furchetta",
    "alternativen": [
      "La Furchёta",
      "Furchetta"
    ],
    "lat": 46.6121209,
    "lon": 11.7736385,
    "einwohner": 3025,
    "waehlbar": true
  },
  {
    "name": "Filtuidenkopf",
    "alternativen": [
      "Filtuidenkopf",
      "Südtirol Topokarte"
    ],
    "lat": 46.9700446,
    "lon": 11.693785,
    "einwohner": 3025,
    "waehlbar": false
  },
  {
    "name": "Imstspitze",
    "alternativen": [
      "Imstspitze"
    ],
    "lat": 46.8273659,
    "lon": 11.1048156,
    "einwohner": 3024,
    "waehlbar": false
  },
  {
    "name": "Wurmaulspitze/Cima Valmala",
    "alternativen": [
      "Cima Valmala",
      "Wurmaulspitze"
    ],
    "lat": 46.913973,
    "lon": 11.6377879,
    "einwohner": 3022,
    "waehlbar": true
  },
  {
    "name": "Großschrottner",
    "alternativen": [
      "Großschrottner"
    ],
    "lat": 46.7409851,
    "lon": 11.0141577,
    "einwohner": 3022,
    "waehlbar": false
  },
  {
    "name": "Glockhauser",
    "alternativen": [
      "Glockhauser"
    ],
    "lat": 46.8661462,
    "lon": 10.6504159,
    "einwohner": 3021,
    "waehlbar": true
  },
  {
    "name": "Pockshorn",
    "alternativen": [
      "Pockshorn"
    ],
    "lat": 46.9534527,
    "lon": 11.723994,
    "einwohner": 3021,
    "waehlbar": true
  },
  {
    "name": "Berglspitz/Punta del Monte",
    "alternativen": [
      "Berglspitz",
      "Punta del Monte",
      "https://map.schweizmobil.ch"
    ],
    "lat": 46.7113891,
    "lon": 10.7851214,
    "einwohner": 3019,
    "waehlbar": true
  },
  {
    "name": "Weißwandspitze/Parete Bianca",
    "alternativen": [
      "Parete Bianca",
      "Weißwandspitze"
    ],
    "lat": 46.9835433,
    "lon": 11.3003047,
    "einwohner": 3016,
    "waehlbar": true
  },
  {
    "name": "Schwarze Wand/Croda Nera",
    "alternativen": [
      "Croda Nera",
      "Schwarze Wand"
    ],
    "lat": 46.5668503,
    "lon": 10.7202978,
    "einwohner": 3016,
    "waehlbar": false
  },
  {
    "name": "Hohe Schlecht Gaisl/Crodaccia Alta",
    "alternativen": [
      "Crodaccia Alta",
      "Hohe Schlecht Gaisl"
    ],
    "lat": 46.6441871,
    "lon": 12.1340905,
    "einwohner": 3015,
    "waehlbar": true
  },
  {
    "name": "Kleiner Gamstod",
    "alternativen": [
      "S.433;Tabacco",
      "Führer Willi End",
      "Karte",
      "Kleiner Gamstod"
    ],
    "lat": 47.0601654,
    "lon": 12.2014304,
    "einwohner": 3012,
    "waehlbar": false
  },
  {
    "name": "Schmugglerkopf",
    "alternativen": [
      "Schmugglerkopf"
    ],
    "lat": 46.8672069,
    "lon": 10.688192,
    "einwohner": 3012,
    "waehlbar": false
  },
  {
    "name": "Hirbernock/Cima di Moia",
    "alternativen": [
      "Hirbernock",
      "Cima di Moia"
    ],
    "lat": 46.972495,
    "lon": 12.0470063,
    "einwohner": 3010,
    "waehlbar": true
  },
  {
    "name": "Nockspitz/Cima del Dosso",
    "alternativen": [
      "Nockspitz",
      "Cima del Dosso"
    ],
    "lat": 46.8432485,
    "lon": 10.684324,
    "einwohner": 3009,
    "waehlbar": true
  },
  {
    "name": "Eisseespitze/Piz Lago Gelato",
    "alternativen": [
      "Piz Léch Dlacè",
      "Piz Lago Gelato",
      "Eisseespitze"
    ],
    "lat": 46.5142596,
    "lon": 11.8327407,
    "einwohner": 3009,
    "waehlbar": true
  },
  {
    "name": "Zielspitze/Cima di Tel",
    "alternativen": [
      "Cima di Tel",
      "Zielspitze"
    ],
    "lat": 46.69272,
    "lon": 11.0131649,
    "einwohner": 3008,
    "waehlbar": true
  },
  {
    "name": "Mittlere Ohrenspitze",
    "alternativen": [
      "Mittlere Ohrenspitze"
    ],
    "lat": 46.910136,
    "lon": 12.1697309,
    "einwohner": 3005,
    "waehlbar": true
  },
  {
    "name": "Kemater Spitz/Punta Caminata",
    "alternativen": [
      "Punta Caminata",
      "Kemater Spitz"
    ],
    "lat": 47.0254659,
    "lon": 12.1800895,
    "einwohner": 3005,
    "waehlbar": true
  },
  {
    "name": "Kesselkogel/Catinaccio d'Antermoia",
    "alternativen": [
      "Catinaccio d'Antermoia",
      "Kesselkogel"
    ],
    "lat": 46.4740893,
    "lon": 11.6438283,
    "einwohner": 3004,
    "waehlbar": true
  },
  {
    "name": "Piz Costainas/Furkelspitz",
    "alternativen": [
      "Furkelspitz",
      "Piz Costainas"
    ],
    "lat": 46.5622664,
    "lon": 10.4749463,
    "einwohner": 3004,
    "waehlbar": true
  },
  {
    "name": "Schnalsberg",
    "alternativen": [
      "Schnalsberg"
    ],
    "lat": 46.7531033,
    "lon": 11.0287533,
    "einwohner": 3004,
    "waehlbar": false
  },
  {
    "name": "Stierkopf/Testa del Toro",
    "alternativen": [
      "Testa del Toro",
      "Stierkopf"
    ],
    "lat": 46.568244,
    "lon": 10.5985153,
    "einwohner": 3003,
    "waehlbar": true
  },
  {
    "name": "Schwarzkopf/Cima Nera",
    "alternativen": [
      "Cima Nera",
      "Schwarzkopf"
    ],
    "lat": 46.8129803,
    "lon": 10.6359477,
    "einwohner": 3002,
    "waehlbar": true
  },
  {
    "name": "Zahnkofel/Dente",
    "alternativen": [
      "Dente",
      "Zahnkofel",
      "L Dënt",
      "Il Dente"
    ],
    "lat": 46.5102337,
    "lon": 11.7258972,
    "einwohner": 3000,
    "waehlbar": true
  },
  {
    "name": "Tschigat/Gigot",
    "alternativen": [
      "Tschigot",
      "Giogo di Tessa",
      "Gigot",
      "Tschigat"
    ],
    "lat": 46.719869,
    "lon": 11.0600507,
    "einwohner": 2999,
    "waehlbar": true
  },
  {
    "name": "Kraxentrager/La Gerla",
    "alternativen": [
      "La Gerla",
      "Kraxentrager"
    ],
    "lat": 47.0053983,
    "lon": 11.5899138,
    "einwohner": 2999,
    "waehlbar": true
  },
  {
    "name": "Kleinschotterer",
    "alternativen": [
      "Kleinschotterer"
    ],
    "lat": 46.7432054,
    "lon": 11.0108962,
    "einwohner": 2998,
    "waehlbar": false
  },
  {
    "name": "Fünffingerspitze/Punta delle Cinque Dita",
    "alternativen": [
      "Pizes di Cin Dëic",
      "Fünffingerspitze",
      "Punta delle Cinque Dita"
    ],
    "lat": 46.5133946,
    "lon": 11.736938,
    "einwohner": 2997,
    "waehlbar": false
  },
  {
    "name": "Jochköfel/Gioco Alto di Senales",
    "alternativen": [
      "Gioco Alto di Senales",
      "Jochköfel"
    ],
    "lat": 46.7870617,
    "lon": 10.7870244,
    "einwohner": 2991,
    "waehlbar": false
  },
  {
    "name": "Piza de Medo/Punta di mezzo",
    "alternativen": [
      "Piza de Medo",
      "Punta di mezzo"
    ],
    "lat": 46.5513305,
    "lon": 12.0142808,
    "einwohner": 2989,
    "waehlbar": false
  },
  {
    "name": "Ebengrubenspitz/Cima di Pianbello",
    "alternativen": [
      "Cima di Pianbello",
      "Ebengrubenspitz"
    ],
    "lat": 46.906951,
    "lon": 11.5835828,
    "einwohner": 2989,
    "waehlbar": true
  },
  {
    "name": "Schwarzseespitze/Cima del Lago Nero",
    "alternativen": [
      "Cima del Lago Nero",
      "Schwarzseespitze"
    ],
    "lat": 46.9142024,
    "lon": 11.2005919,
    "einwohner": 2988,
    "waehlbar": true
  },
  {
    "name": "Blickenspitz/Cima Vista",
    "alternativen": [
      "Cima Vista",
      "Blickenspitz"
    ],
    "lat": 46.9077781,
    "lon": 11.6029062,
    "einwohner": 2988,
    "waehlbar": true
  },
  {
    "name": "Grawand",
    "alternativen": [
      "Grawand"
    ],
    "lat": 47.0058893,
    "lon": 11.6304581,
    "einwohner": 2987,
    "waehlbar": false
  },
  {
    "name": "Piz Pisciadù/Pisciadù-Spitze/Cima Pisciadù",
    "alternativen": [
      "Pisciadù",
      "Piz Pisciadù",
      "Spitze",
      "Pisciadù-Spitze",
      "Cima Pissadù",
      "Cima Pisciadù"
    ],
    "lat": 46.5314922,
    "lon": 11.8248248,
    "einwohner": 2985,
    "waehlbar": true
  },
  {
    "name": "Schwarze Wand/Croda Nera",
    "alternativen": [
      "Croda Nera",
      "Schwarze Wand"
    ],
    "lat": 46.6858935,
    "lon": 10.845049,
    "einwohner": 2984,
    "waehlbar": true
  },
  {
    "name": "Kleine Windschar/Piccola Cima del Vento",
    "alternativen": [
      "Kleine Windschar",
      "Piccola Cima del Vento"
    ],
    "lat": 46.8905983,
    "lon": 12.0097872,
    "einwohner": 2981,
    "waehlbar": true
  },
  {
    "name": "Rosengartenspitze/Cima Catinaccio",
    "alternativen": [
      "Rosengartenspitze",
      "Cima Catinaccio",
      "Ciadenac"
    ],
    "lat": 46.4541483,
    "lon": 11.6216187,
    "einwohner": 2981,
    "waehlbar": true
  },
  {
    "name": "Mutti",
    "alternativen": [
      "Mutti"
    ],
    "lat": 47.0036379,
    "lon": 12.1206329,
    "einwohner": 2980,
    "waehlbar": true
  },
  {
    "name": "Oberer Wiegenspitz/Cima Culla Alta",
    "alternativen": [
      "Hoher Wiegenspitz",
      "Oberer Wiegenspitz",
      "Cima Culla Alta"
    ],
    "lat": 46.691046,
    "lon": 10.8502203,
    "einwohner": 2978,
    "waehlbar": false
  },
  {
    "name": "Speikerwand/Croda Spica",
    "alternativen": [
      "Speikerwand",
      "Croda Spica"
    ],
    "lat": 46.7860585,
    "lon": 10.6251492,
    "einwohner": 2977,
    "waehlbar": false
  },
  {
    "name": "Kleiner Raffein-Rabenspitz",
    "alternativen": [
      "Rabenspitz",
      "Kleiner Raffein",
      "Kleiner Raffein-Rabenspitz"
    ],
    "lat": 46.7603338,
    "lon": 10.8291714,
    "einwohner": 2974,
    "waehlbar": false
  },
  {
    "name": "Piz Beguz",
    "alternativen": [
      "Piz Beguz"
    ],
    "lat": 46.5277578,
    "lon": 11.800367,
    "einwohner": 2974,
    "waehlbar": false
  },
  {
    "name": "Gaiswandspitz/Croda della Capra",
    "alternativen": [
      "Gaiswandspitz",
      "Croda della Capra"
    ],
    "lat": 46.9609669,
    "lon": 11.2164717,
    "einwohner": 2974,
    "waehlbar": false
  },
  {
    "name": "Piz Rotic",
    "alternativen": [
      "Piz Rotic"
    ],
    "lat": 46.5297611,
    "lon": 11.8035543,
    "einwohner": 2973,
    "waehlbar": false
  },
  {
    "name": "Pfaffennock/Cima del Prete",
    "alternativen": [
      "Cima del Prete",
      "Pfaffennock"
    ],
    "lat": 46.971135,
    "lon": 11.8143763,
    "einwohner": 2973,
    "waehlbar": true
  },
  {
    "name": "Westliche Zinne/Cima Ovest",
    "alternativen": [
      "Cima Ovest di Lavaredo",
      "Westliche Zinne",
      "Cima Ovest"
    ],
    "lat": 46.6187691,
    "lon": 12.2972332,
    "einwohner": 2973,
    "waehlbar": true
  },
  {
    "name": "Mittagskofel/Cima di Mezzodi",
    "alternativen": [
      "Sas de Medi",
      "Cima di Mezzodi",
      "Sas de Mesdi",
      "Mittagskofel"
    ],
    "lat": 46.5254564,
    "lon": 11.8235834,
    "einwohner": 2970,
    "waehlbar": false
  },
  {
    "name": "Piza Nord/Punta Nord",
    "alternativen": [
      "Punta Nord",
      "Piza Nord"
    ],
    "lat": 46.5561837,
    "lon": 12.0186898,
    "einwohner": 2969,
    "waehlbar": false
  },
  {
    "name": "Graslahnerspitz",
    "alternativen": [
      "Graslahnerspitz",
      "Timmelsjochberg",
      "Monte del Rombo"
    ],
    "lat": 46.9159381,
    "lon": 11.109158,
    "einwohner": 2969,
    "waehlbar": true
  },
  {
    "name": "Neuner (Spitze)/Cima Nove (Sasso delle Nove)",
    "alternativen": [
      "Cima Nove (Sasso delle Nove)",
      "Neuner (Spitze)",
      "Sas dales Nü",
      "Piza dales Nü"
    ],
    "lat": 46.6303454,
    "lon": 11.9810725,
    "einwohner": 2968,
    "waehlbar": true
  },
  {
    "name": "Hohe Wand",
    "alternativen": [
      "Hohe Wand"
    ],
    "lat": 46.969102,
    "lon": 11.2206098,
    "einwohner": 2968,
    "waehlbar": false
  },
  {
    "name": "Weißlahnspitze/Punta Lavina Bianca",
    "alternativen": [
      "Punta Lavina Bianca",
      "Weißlahnspitze",
      "Weißlahnspitz"
    ],
    "lat": 46.6611557,
    "lon": 12.3144682,
    "einwohner": 2968,
    "waehlbar": false
  },
  {
    "name": "Sas dla Porta/Torkofel",
    "alternativen": [
      "Sas dla Porta",
      "Torkofel"
    ],
    "lat": 46.6086034,
    "lon": 11.7764016,
    "einwohner": 2967,
    "waehlbar": true
  },
  {
    "name": "Haunold/Rocca dei Baranci",
    "alternativen": [
      "Rocca dei Baranci",
      "Haunoldspitze",
      "Haunold",
      "La Rocca;Rocca Grande;Rocca Principale dei Baranci"
    ],
    "lat": 46.6887473,
    "lon": 12.2778058,
    "einwohner": 2966,
    "waehlbar": true
  },
  {
    "name": "Östlicher Gerstgraserspitz/Punta di Cortiserrade Est",
    "alternativen": [
      "Östlicher Gerstgraserspitz",
      "Punta di Cortiserrade Est"
    ],
    "lat": 46.7081365,
    "lon": 10.8111601,
    "einwohner": 2966,
    "waehlbar": true
  },
  {
    "name": "Schneeberger Weißen/Rocce Bianche di Montenevoso",
    "alternativen": [
      "Rocce Bianche di Montenevoso",
      "Schneeberger Weißen"
    ],
    "lat": 46.9089789,
    "lon": 11.1808515,
    "einwohner": 2965,
    "waehlbar": true
  },
  {
    "name": "Sextener Rotwand/Croda Rossa di Sesto",
    "alternativen": [
      "Sextener Rotwand",
      "Zehner;Vinatzerturm",
      "Croda Rossa di Sesto",
      "Cima Dieci"
    ],
    "lat": 46.6438343,
    "lon": 12.3816873,
    "einwohner": 2965,
    "waehlbar": true
  },
  {
    "name": "Gfallenspitz/Punta del Cavallo",
    "alternativen": [
      "Punta del Cavallo",
      "Gfallenspitz"
    ],
    "lat": 47.0405362,
    "lon": 11.9684859,
    "einwohner": 2964,
    "waehlbar": false
  },
  {
    "name": "Piz Miara",
    "alternativen": [
      "Piz Miara"
    ],
    "lat": 46.5236057,
    "lon": 11.7954081,
    "einwohner": 2964,
    "waehlbar": true
  },
  {
    "name": "Jennwand/Croda Jenne",
    "alternativen": [
      "Croda Jenne",
      "Jennwand"
    ],
    "lat": 46.5747589,
    "lon": 10.7193737,
    "einwohner": 2962,
    "waehlbar": true
  },
  {
    "name": "Bech de Mesdi",
    "alternativen": [
      "Bech de Mesdi"
    ],
    "lat": 46.5270692,
    "lon": 11.8268429,
    "einwohner": 2962,
    "waehlbar": false
  },
  {
    "name": "Graunock",
    "alternativen": [
      "Graunock"
    ],
    "lat": 46.9709887,
    "lon": 12.1360034,
    "einwohner": 2961,
    "waehlbar": true
  },
  {
    "name": "Großer Tartscher Kopf/Monte di Tarres",
    "alternativen": [
      "Großer Tartscher Kopf",
      "Monte di Tarres"
    ],
    "lat": 46.5569686,
    "lon": 10.4782251,
    "einwohner": 2961,
    "waehlbar": false
  },
  {
    "name": "Bärenluegspitze/Cima dell'Orso",
    "alternativen": [
      "Cima dell'Orso",
      "Bärenluegspitze"
    ],
    "lat": 46.9606249,
    "lon": 12.125228,
    "einwohner": 2960,
    "waehlbar": true
  },
  {
    "name": "Getristeter Stein/Monte Rotto",
    "alternativen": [
      "Monte Rotto",
      "Getristeter Stein"
    ],
    "lat": 46.536059,
    "lon": 10.8660592,
    "einwohner": 2960,
    "waehlbar": false
  },
  {
    "name": "Plattkofel/Sasso Piatto",
    "alternativen": [
      "Sasplat",
      "Plattkofel",
      "Sasso Piatto"
    ],
    "lat": 46.5141348,
    "lon": 11.7157706,
    "einwohner": 2958,
    "waehlbar": true
  },
  {
    "name": "Rotwand",
    "alternativen": [
      "Rotwand"
    ],
    "lat": 47.03952,
    "lon": 11.9858136,
    "einwohner": 2958,
    "waehlbar": false
  },
  {
    "name": "Gleck/Collecchio",
    "alternativen": [
      "Collecchio",
      "Gleck"
    ],
    "lat": 46.4461374,
    "lon": 10.7969076,
    "einwohner": 2957,
    "waehlbar": false
  },
  {
    "name": "Schusterplatte/Lastron dei Scarperi",
    "alternativen": [
      "Schusterplatte",
      "Lastron dei Scarperi"
    ],
    "lat": 46.6571141,
    "lon": 12.3165155,
    "einwohner": 2956,
    "waehlbar": true
  },
  {
    "name": "Hohlkogel",
    "alternativen": [
      "Hohlkogel"
    ],
    "lat": 46.9274641,
    "lon": 11.1388119,
    "einwohner": 2956,
    "waehlbar": false
  },
  {
    "name": "Weißes Riepl/Costa Bianca",
    "alternativen": [
      "Weißes Riepl",
      "Costa Bianca"
    ],
    "lat": 46.6776361,
    "lon": 10.7240607,
    "einwohner": 2955,
    "waehlbar": true
  },
  {
    "name": "Zerzer Köpfl/Cima di Zerzer",
    "alternativen": [
      "Zerzer Köpfl",
      "Cima di Zerzer"
    ],
    "lat": 46.7696781,
    "lon": 10.6212852,
    "einwohner": 2955,
    "waehlbar": false
  },
  {
    "name": "Grasleitenkopf/Cima di Campogrande",
    "alternativen": [
      "Cima di Campogrande",
      "Grasleitenkopf"
    ],
    "lat": 47.0801627,
    "lon": 12.2279368,
    "einwohner": 2954,
    "waehlbar": true
  },
  {
    "name": "Fernerspitz/Punta della Vederetta",
    "alternativen": [
      "Punta della Vedretta",
      "Fernerspitz",
      "Punta della Vederetta"
    ],
    "lat": 46.7191543,
    "lon": 10.4188124,
    "einwohner": 2954,
    "waehlbar": true
  },
  {
    "name": "Piz Parom",
    "alternativen": [
      "Piz Parom"
    ],
    "lat": 46.58854,
    "lon": 11.9833706,
    "einwohner": 2954,
    "waehlbar": false
  },
  {
    "name": "Hohes Kreuzjoch/Monte Croce",
    "alternativen": [
      "Hohes Kreuzjoch",
      "Monte Croce"
    ],
    "lat": 46.6776687,
    "lon": 10.6599769,
    "einwohner": 2950,
    "waehlbar": true
  },
  {
    "name": "Saßenegg",
    "alternativen": [
      "Saßenegg"
    ],
    "lat": 46.9645118,
    "lon": 12.1205056,
    "einwohner": 2950,
    "waehlbar": true
  },
  {
    "name": "Rotes Beil/Punta Rossa",
    "alternativen": [
      "Punta Rossa",
      "Rotes Beil"
    ],
    "lat": 46.9527868,
    "lon": 11.6607253,
    "einwohner": 2949,
    "waehlbar": true
  },
  {
    "name": "Schadler",
    "alternativen": [
      "Schadler"
    ],
    "lat": 46.7273565,
    "lon": 10.4095073,
    "einwohner": 2948,
    "waehlbar": true
  },
  {
    "name": "Valdaschlikopf/Costeras",
    "alternativen": [
      "Valdaschlikopf",
      "Costeras"
    ],
    "lat": 46.6952297,
    "lon": 10.4203517,
    "einwohner": 2946,
    "waehlbar": false
  },
  {
    "name": "Kramerspitz/Cima del Lago",
    "alternativen": [
      "Cima del Lago",
      "Kramerspitz"
    ],
    "lat": 46.9074703,
    "lon": 11.5716661,
    "einwohner": 2943,
    "waehlbar": true
  },
  {
    "name": "Mutspitze/Monte Muta",
    "alternativen": [
      "Monte Muta",
      "Mutspitze"
    ],
    "lat": 46.4793569,
    "lon": 10.6534666,
    "einwohner": 2943,
    "waehlbar": false
  },
  {
    "name": "Odla de Valdusa",
    "alternativen": [
      "Odla de Valdusa"
    ],
    "lat": 46.6122621,
    "lon": 11.7762172,
    "einwohner": 2942,
    "waehlbar": false
  },
  {
    "name": "Piz Rasaß/Punta di Rasass",
    "alternativen": [
      "Punta di Rasass",
      "Piz Rasaß"
    ],
    "lat": 46.7478162,
    "lon": 10.4474659,
    "einwohner": 2941,
    "waehlbar": true
  },
  {
    "name": "Piz Sëlva",
    "alternativen": [
      "Piz Sëlva"
    ],
    "lat": 46.514931,
    "lon": 11.7908787,
    "einwohner": 2940,
    "waehlbar": false
  },
  {
    "name": "Kluppen/Cluppe",
    "alternativen": [
      "Kluppen",
      "Cluppe"
    ],
    "lat": 47.0066544,
    "lon": 11.6031286,
    "einwohner": 2940,
    "waehlbar": false
  },
  {
    "name": "Ribigenspitz",
    "alternativen": [
      "Ribigenspitz"
    ],
    "lat": 46.8980507,
    "lon": 11.6413895,
    "einwohner": 2939,
    "waehlbar": false
  },
  {
    "name": "Kleine Ohrenspitze",
    "alternativen": [
      "Kleine Ohrenspitze"
    ],
    "lat": 46.9069037,
    "lon": 12.1624897,
    "einwohner": 2938,
    "waehlbar": true
  },
  {
    "name": "Riesernock",
    "alternativen": [
      "Riesernock"
    ],
    "lat": 46.9297221,
    "lon": 12.1317679,
    "einwohner": 2937,
    "waehlbar": true
  },
  {
    "name": "Sextener Rotwand Gipfelkreuz",
    "alternativen": [
      "Cima Osservatorio",
      "Sextener Rotwand Gipfelkreuz"
    ],
    "lat": 46.6453028,
    "lon": 12.383275,
    "einwohner": 2936,
    "waehlbar": false
  },
  {
    "name": "Äußerer Sattelnock/Cima di Sella di fuori",
    "alternativen": [
      "Cima di Sella di fuori",
      "Äußerer Sattelnock",
      "Cima di Sella di Fuori"
    ],
    "lat": 46.9758082,
    "lon": 11.813884,
    "einwohner": 2936,
    "waehlbar": true
  },
  {
    "name": "Sas da Lech",
    "alternativen": [
      "Sas da Lech"
    ],
    "lat": 46.5341442,
    "lon": 11.8165115,
    "einwohner": 2936,
    "waehlbar": true
  },
  {
    "name": "Salzkopfl",
    "alternativen": [
      "Salzkopfl"
    ],
    "lat": 46.9607655,
    "lon": 11.7494535,
    "einwohner": 2935,
    "waehlbar": true
  },
  {
    "name": "Karspitz/Punta Quaira",
    "alternativen": [
      "Karspitz",
      "Punta Quaira"
    ],
    "lat": 46.5435034,
    "lon": 10.4724666,
    "einwohner": 2933,
    "waehlbar": false
  },
  {
    "name": "Röteck/Cima Rossa",
    "alternativen": [
      "Röteck",
      "Cima Rossa"
    ],
    "lat": 46.949872,
    "lon": 11.6882213,
    "einwohner": 2930,
    "waehlbar": true
  },
  {
    "name": "Gruberspitze",
    "alternativen": [
      "Gruberspitze"
    ],
    "lat": 46.6592626,
    "lon": 10.8677938,
    "einwohner": 2930,
    "waehlbar": false
  },
  {
    "name": "Peilspitze",
    "alternativen": [
      "Peilspitze"
    ],
    "lat": 46.9242127,
    "lon": 11.1287641,
    "einwohner": 2930,
    "waehlbar": false
  },
  {
    "name": "Vermoi Spitze/Punta Vermoi",
    "alternativen": [
      "Vermoi Spitze",
      "Punta Vermoi"
    ],
    "lat": 46.6592446,
    "lon": 10.8697752,
    "einwohner": 2929,
    "waehlbar": true
  },
  {
    "name": "Piz dles Döes Forceles",
    "alternativen": [
      "Piz dles Döes Forceles"
    ],
    "lat": 46.5781566,
    "lon": 11.9731793,
    "einwohner": 2929,
    "waehlbar": false
  },
  {
    "name": "Sonnenwand/Croda del Sole",
    "alternativen": [
      "Sonnenwand",
      "Croda del Sole"
    ],
    "lat": 46.4953208,
    "lon": 10.6476205,
    "einwohner": 2929,
    "waehlbar": false
  },
  {
    "name": "Egetseekopf",
    "alternativen": [
      "Egetseekopf"
    ],
    "lat": 46.9141376,
    "lon": 11.2047951,
    "einwohner": 2928,
    "waehlbar": false
  },
  {
    "name": "Rote Rinne",
    "alternativen": [
      "Rote Rinne",
      "Korbeck"
    ],
    "lat": 46.7548142,
    "lon": 10.8069627,
    "einwohner": 2928,
    "waehlbar": false
  },
  {
    "name": "Piz Taibun",
    "alternativen": [
      "Piz Taibun"
    ],
    "lat": 46.5789516,
    "lon": 11.9897512,
    "einwohner": 2927,
    "waehlbar": false
  },
  {
    "name": "Rauhjochspitz/Monte Scabro",
    "alternativen": [
      "Monte Scabro",
      "Rauhjochspitz",
      "Rauhes Joch"
    ],
    "lat": 46.8286255,
    "lon": 11.1140058,
    "einwohner": 2926,
    "waehlbar": false
  },
  {
    "name": "Rotwand/Croda Rossa",
    "alternativen": [
      "Rotwand",
      "Croda Rossa"
    ],
    "lat": 46.9030568,
    "lon": 11.6420426,
    "einwohner": 2926,
    "waehlbar": true
  },
  {
    "name": "Lorenzenspitz/Punta San Lorenzo",
    "alternativen": [
      "Lorenzenspitz",
      "Punta San Lorenzo"
    ],
    "lat": 46.9580781,
    "lon": 11.2638046,
    "einwohner": 2926,
    "waehlbar": false
  },
  {
    "name": "Schneespitz/Cima della Neve",
    "alternativen": [
      "Cima della Neve",
      "Schneespitz"
    ],
    "lat": 47.0044951,
    "lon": 12.1063657,
    "einwohner": 2925,
    "waehlbar": true
  },
  {
    "name": "Wasserkofel/Furchetta Grande",
    "alternativen": [
      "Furchetta Grande",
      "Wasserkofel",
      "Sas dal'Ega"
    ],
    "lat": 46.6133005,
    "lon": 11.781847,
    "einwohner": 2924,
    "waehlbar": false
  },
  {
    "name": "Hoher Zahn/Dente Alto",
    "alternativen": [
      "Dente Alto",
      "Hoher Zahn"
    ],
    "lat": 46.9840855,
    "lon": 11.3079076,
    "einwohner": 2924,
    "waehlbar": true
  },
  {
    "name": "Gamsturm/Torre del Camosci",
    "alternativen": [
      "Gamsturm",
      "Torre del Camosci"
    ],
    "lat": 46.7004288,
    "lon": 10.7358799,
    "einwohner": 2923,
    "waehlbar": false
  },
  {
    "name": "Klopaier Spitze/Piz Clopai",
    "alternativen": [
      "Klopaier Spitze",
      "Piz Clopai"
    ],
    "lat": 46.8372666,
    "lon": 10.5461739,
    "einwohner": 2922,
    "waehlbar": true
  },
  {
    "name": "Birkenkofel/Croda dei Baranci",
    "alternativen": [
      "Birkenkofel",
      "Croda dei Baranci"
    ],
    "lat": 46.6819312,
    "lon": 12.2560112,
    "einwohner": 2922,
    "waehlbar": true
  },
  {
    "name": "Nashornspitze/Corno del naso",
    "alternativen": [
      "Nashornspitze",
      "Corno del naso"
    ],
    "lat": 46.509025,
    "lon": 10.5066849,
    "einwohner": 2921,
    "waehlbar": false
  },
  {
    "name": "Westliche Puezspitze/Piz de Puez",
    "alternativen": [
      "Piz de Puez",
      "Westliche Puezspitze"
    ],
    "lat": 46.5987067,
    "lon": 11.8106777,
    "einwohner": 2918,
    "waehlbar": false
  },
  {
    "name": "Kleiner Tartscher Kopf/Cima Piccola di Tarres",
    "alternativen": [
      "Kleiner Tartscher Kopf",
      "Cima Piccola di Tarres"
    ],
    "lat": 46.5509598,
    "lon": 10.4737896,
    "einwohner": 2918,
    "waehlbar": false
  },
  {
    "name": "Aussergramsenspitz/Cima di Grames di Fuori",
    "alternativen": [
      "Cima di Grames di Fuori",
      "Aussergramsenspitz"
    ],
    "lat": 46.4791235,
    "lon": 10.7249292,
    "einwohner": 2917,
    "waehlbar": false
  },
  {
    "name": "Zehner/Sasso delle Dieci",
    "alternativen": [
      "Sasso delle Dieci",
      "Zehner",
      "Sas dles Diesc"
    ],
    "lat": 46.524859,
    "lon": 11.8392936,
    "einwohner": 2916,
    "waehlbar": false
  },
  {
    "name": "Trumsspitze/Punta di Trumes",
    "alternativen": [
      "Trumsspitze",
      "Punta di Trumes"
    ],
    "lat": 46.671166,
    "lon": 10.8923178,
    "einwohner": 2914,
    "waehlbar": false
  },
  {
    "name": "Boèseekofel/Piz da Lec",
    "alternativen": [
      "Boèseekofel",
      "Piz da Lec",
      "Piz da Lêch"
    ],
    "lat": 46.5274762,
    "lon": 11.8410926,
    "einwohner": 2913,
    "waehlbar": true
  },
  {
    "name": "Östliche Puezspitze/Piz de Puez",
    "alternativen": [
      "Piza de Puez",
      "Piz de Puez",
      "Östliche Puezspitze"
    ],
    "lat": 46.5979627,
    "lon": 11.8138121,
    "einwohner": 2913,
    "waehlbar": true
  },
  {
    "name": "Klockerkarkopf/Vetta d'Italia",
    "alternativen": [
      "Vetta d’Europa",
      "Europagipfel",
      "Glockenkarkopf",
      "Vetta d'Italia",
      "Vetta d'Europa",
      "Klockerkarkopf"
    ],
    "lat": 47.0911694,
    "lon": 12.1805738,
    "einwohner": 2912,
    "waehlbar": true
  },
  {
    "name": "Katzenkofel/Cima del Gatto",
    "alternativen": [
      "Cima del Gatto",
      "Katzenkofel"
    ],
    "lat": 46.9796619,
    "lon": 12.0594958,
    "einwohner": 2912,
    "waehlbar": true
  },
  {
    "name": "Wilder Hut/Monte Capello",
    "alternativen": [
      "Monte Capello",
      "Wilder Hut"
    ],
    "lat": 46.7413418,
    "lon": 10.8816466,
    "einwohner": 2912,
    "waehlbar": false
  },
  {
    "name": "Monte Ciaval",
    "alternativen": [
      "Monte Ciaval",
      "Monte Cavallo"
    ],
    "lat": 46.5624862,
    "lon": 12.0250756,
    "einwohner": 2911,
    "waehlbar": true
  },
  {
    "name": "Innerer Speikkofel",
    "alternativen": [
      "Innerer Speikkofel"
    ],
    "lat": 47.0210841,
    "lon": 11.9200054,
    "einwohner": 2910,
    "waehlbar": true
  },
  {
    "name": "Obwasserer",
    "alternativen": [
      "Obwasserer"
    ],
    "lat": 47.0271493,
    "lon": 11.9497333,
    "einwohner": 2910,
    "waehlbar": true
  },
  {
    "name": "Piza de Campestrin Sud/Cima Campestrin Sud",
    "alternativen": [
      "Piza de Campestrin Sud",
      "Cima Campestrin Sud"
    ],
    "lat": 46.5706184,
    "lon": 12.0189259,
    "einwohner": 2910,
    "waehlbar": false
  },
  {
    "name": "Mittereggspitze/Punta di Mezzo",
    "alternativen": [
      "Mittereggspitze",
      "Punta di Mezzo"
    ],
    "lat": 46.7618951,
    "lon": 10.6023765,
    "einwohner": 2909,
    "waehlbar": true
  },
  {
    "name": "Piz Urtiola",
    "alternativen": [
      "Urtirolaspitz",
      "Piz Urtiola"
    ],
    "lat": 46.6384687,
    "lon": 10.3999803,
    "einwohner": 2909,
    "waehlbar": true
  },
  {
    "name": "Piz Duleda",
    "alternativen": [
      "Piz Duleda",
      "Duledes"
    ],
    "lat": 46.6004309,
    "lon": 11.7965723,
    "einwohner": 2909,
    "waehlbar": true
  },
  {
    "name": "Vorderes Schöneck/Dossobello di Fuori",
    "alternativen": [
      "Dossobello di Fuori",
      "Vorderes Schöneck"
    ],
    "lat": 46.5426093,
    "lon": 10.599153,
    "einwohner": 2908,
    "waehlbar": false
  },
  {
    "name": "Heiligkreuzkofel/Monte Cavallo",
    "alternativen": [
      "Heiligkreuzkofel",
      "L'Ciaval",
      "Monte Cavallo",
      "Le Ciaval"
    ],
    "lat": 46.6144819,
    "lon": 11.951485,
    "einwohner": 2907,
    "waehlbar": true
  },
  {
    "name": "Haunold Ostgipfel/Rocca dei Baranci Cima Est",
    "alternativen": [
      "Rocca dei Baranci Cima Est",
      "Haunold Ostgipfel",
      "Rocca Est dei Baranci"
    ],
    "lat": 46.6897924,
    "lon": 12.2815974,
    "einwohner": 2907,
    "waehlbar": true
  },
  {
    "name": "Altensteinspitzen/Punte Sassovecchio",
    "alternativen": [
      "Altensteinspitzen",
      "Punte Sassovecchio"
    ],
    "lat": 46.6544597,
    "lon": 12.324965,
    "einwohner": 2906,
    "waehlbar": false
  },
  {
    "name": "Hochebenkofel/Cima Piatta Alta",
    "alternativen": [
      "Cima del Pian Alto",
      "Cima Piatta Alta",
      "Hochebenkofel"
    ],
    "lat": 46.6802201,
    "lon": 12.257035,
    "einwohner": 2905,
    "waehlbar": false
  },
  {
    "name": "Neuner/Sasso delle Nove",
    "alternativen": [
      "Sas dles Nü",
      "Neuner",
      "Sas dels Nü",
      "Sasso delle Nove"
    ],
    "lat": 46.5225247,
    "lon": 11.8360844,
    "einwohner": 2904,
    "waehlbar": true
  },
  {
    "name": "Wölfeleskopf/Cima del Lupo",
    "alternativen": [
      "Cima del Lupo",
      "Wölfeleskopf"
    ],
    "lat": 46.8505997,
    "lon": 10.5904715,
    "einwohner": 2903,
    "waehlbar": false
  },
  {
    "name": "Habicherkopf/Cima Sparvieri",
    "alternativen": [
      "Habicherkopf",
      "Cima Sparvieri"
    ],
    "lat": 46.7741829,
    "lon": 10.5876517,
    "einwohner": 2903,
    "waehlbar": true
  },
  {
    "name": "Fallaschkopf/Cima di Vallazza",
    "alternativen": [
      "Cima di Vallazza",
      "Fallaschkopf"
    ],
    "lat": 46.5666535,
    "lon": 10.4746861,
    "einwohner": 2902,
    "waehlbar": false
  },
  {
    "name": "Cime del Vallon",
    "alternativen": [
      "Cime del Vallon",
      "Pizes dl Valun"
    ],
    "lat": 46.5171889,
    "lon": 11.8373288,
    "einwohner": 2901,
    "waehlbar": false
  },
  {
    "name": "Grubenspitze/Punta delle Fosse",
    "alternativen": [
      "Punta delle Fosse",
      "Grubenspitze"
    ],
    "lat": 46.6665677,
    "lon": 10.8874738,
    "einwohner": 2899,
    "waehlbar": true
  },
  {
    "name": "Haunold Westgipfel/Rocca dei Baranci Cima Ovest",
    "alternativen": [
      "Rocca dei Baranci Cima Ovest",
      "Rocca dei Baranci Ovest",
      "Haunold Westgipfel"
    ],
    "lat": 46.6889789,
    "lon": 12.274752,
    "einwohner": 2897,
    "waehlbar": true
  },
  {
    "name": "Grionkopf/Cima di Grion",
    "alternativen": [
      "Grionkopf",
      "Piz Uina",
      "Cima di Grion"
    ],
    "lat": 46.7671306,
    "lon": 10.4417634,
    "einwohner": 2896,
    "waehlbar": true
  },
  {
    "name": "Mont Ciase/Monte Casale",
    "alternativen": [
      "Monte Casale",
      "Mont Ciase"
    ],
    "lat": 46.5637266,
    "lon": 12.0276972,
    "einwohner": 2894,
    "waehlbar": true
  },
  {
    "name": "Rosskopf/Monte Cavallo",
    "alternativen": [
      "Rosskopf",
      "Monte Cavallo"
    ],
    "lat": 46.6655263,
    "lon": 10.8241556,
    "einwohner": 2894,
    "waehlbar": true
  },
  {
    "name": "Wagnerschneid Spitz/Cima Triangolo",
    "alternativen": [
      "Wagnerschneid Spitz",
      "Cima Triangolo"
    ],
    "lat": 47.0585216,
    "lon": 12.0595056,
    "einwohner": 2893,
    "waehlbar": true
  },
  {
    "name": "Mataunkopf/Cima Mataun",
    "alternativen": [
      "Mataunkopf",
      "Cima Mataun"
    ],
    "lat": 46.8478404,
    "lon": 10.5810567,
    "einwohner": 2892,
    "waehlbar": true
  },
  {
    "name": "Dreiecker/Cima di Campo",
    "alternativen": [
      "Feldspitze",
      "Dreiecker",
      "Cima di Campo",
      "德賴克山",
      "Windbachspitze"
    ],
    "lat": 47.0806698,
    "lon": 12.1360244,
    "einwohner": 2892,
    "waehlbar": true
  },
  {
    "name": "Rainhart Spitz/Monte Riva di Predoi",
    "alternativen": [
      "Monte Riva di Predoi",
      "Rainhart Spitz"
    ],
    "lat": 47.0425896,
    "lon": 12.1795612,
    "einwohner": 2891,
    "waehlbar": false
  },
  {
    "name": "Westlicher Mataunkopf",
    "alternativen": [
      "Westlicher Mataunkopf"
    ],
    "lat": 46.8481467,
    "lon": 10.5785601,
    "einwohner": 2890,
    "waehlbar": false
  },
  {
    "name": "Butzenköpfl",
    "alternativen": [
      "Butzenköpfl"
    ],
    "lat": 46.4825942,
    "lon": 10.6392702,
    "einwohner": 2890,
    "waehlbar": false
  },
  {
    "name": "Schusterplattenturm/Torre del Lastron dei Scarperi",
    "alternativen": [
      "Schusterplattenturm",
      "Torre del Lastron dei Scarperi"
    ],
    "lat": 46.6552726,
    "lon": 12.3194074,
    "einwohner": 2890,
    "waehlbar": false
  },
  {
    "name": "Sprinzenwand",
    "alternativen": [
      "Sprinzenwand"
    ],
    "lat": 46.9022751,
    "lon": 11.2028435,
    "einwohner": 2889,
    "waehlbar": false
  },
  {
    "name": "Hoher Schöf/Crodarotta",
    "alternativen": [
      "Hoher Schröf",
      "Crodarotta",
      "Hoher Schöf"
    ],
    "lat": 46.7359414,
    "lon": 10.886201,
    "einwohner": 2889,
    "waehlbar": true
  },
  {
    "name": "Kleine Sass Rigais/Piccola Sass Rigais",
    "alternativen": [
      "Kleine Sass Rigais",
      "Pitl Sas Rigais",
      "Piccola Sass Rigais"
    ],
    "lat": 46.6080899,
    "lon": 11.7623756,
    "einwohner": 2888,
    "waehlbar": false
  },
  {
    "name": "Gatternock",
    "alternativen": [
      "Gatternock"
    ],
    "lat": 46.9210334,
    "lon": 12.059081,
    "einwohner": 2888,
    "waehlbar": true
  },
  {
    "name": "Napfspitz/Cima Cadini",
    "alternativen": [
      "Cima Cadini",
      "Napfspitze",
      "Napfspitz"
    ],
    "lat": 46.9401672,
    "lon": 11.739947,
    "einwohner": 2888,
    "waehlbar": true
  },
  {
    "name": "Schranspitze/Cima Serana",
    "alternativen": [
      "Cima Serana",
      "Schranspitz",
      "Schranspitze"
    ],
    "lat": 46.4726679,
    "lon": 10.6931266,
    "einwohner": 2888,
    "waehlbar": false
  },
  {
    "name": "Stotz",
    "alternativen": [
      "Stotz"
    ],
    "lat": 46.7414202,
    "lon": 10.7602301,
    "einwohner": 2884,
    "waehlbar": false
  },
  {
    "name": "Sauspitzl",
    "alternativen": [
      "Sauspitzl"
    ],
    "lat": 47.0560579,
    "lon": 12.2051948,
    "einwohner": 2883,
    "waehlbar": true
  },
  {
    "name": "Gelenknock",
    "alternativen": [
      "Gelenknock"
    ],
    "lat": 46.9800736,
    "lon": 11.840777,
    "einwohner": 2882,
    "waehlbar": true
  },
  {
    "name": "Torre Pisciadù",
    "alternativen": [
      "Torre Pisciadù"
    ],
    "lat": 46.5318374,
    "lon": 11.8268696,
    "einwohner": 2882,
    "waehlbar": false
  },
  {
    "name": "Dent de Mezdi",
    "alternativen": [
      "Dent de Mezdi",
      "Daint de Mesdì"
    ],
    "lat": 46.5288719,
    "lon": 11.8297753,
    "einwohner": 2881,
    "waehlbar": true
  },
  {
    "name": "Breiter Kopf",
    "alternativen": [
      "Breiter Kopf"
    ],
    "lat": 46.9963091,
    "lon": 11.8504163,
    "einwohner": 2880,
    "waehlbar": true
  },